院校名称,院校所在地,院校隶属,院校类型,学历层次,经度,纬度
北京大学,北京,教育部,综合,本科,116.308264,39.995304
中国人民大学,北京,教育部,综合,本科,113.316177,23.120075
清华大学,北京,教育部,综合,本科,116.326759,40.003304
北京交通大学,北京,教育部,工科,本科/高职(专科),116.339340,39.950612
北京工业大学,北京,北京市教育委员会,工科,本科/高职(专科),116.481374,39.877484
北京航空航天大学,北京,工业和信息化部,工科,本科,116.347313,39.981771
北京理工大学,北京,工业和信息化部,工科,本科,116.322262,39.957401
北京科技大学,北京,教育部,工科,本科/高职(专科),116.359375,39.988717
北方工业大学,北京,北京市教育委员会,工科,本科,116.206490,39.929413
北京化工大学,北京,教育部,工科,本科/高职(专科),116.420818,39.970398
北京工商大学,北京,北京市教育委员会,财经,本科,116.319878,39.925939
北京服装学院,北京,北京市教育委员会,艺术,本科,116.430602,39.974503
北京邮电大学,北京,教育部,工科,本科,116.358103,39.961554
北京印刷学院,北京,北京市教育委员会,工科,本科/高职(专科),116.329503,39.744558
北京建筑大学,北京,北京市教育委员会,工科,本科,116.341093,39.936144
北京石油化工学院,北京,北京市教育委员会,工科,本科,116.325768,39.748175
北京电子科技学院,北京,中共中央办公厅,工科,本科,116.279773,39.837164
中国农业大学,北京,教育部,农业,本科,116.346695,39.991074
北京农学院,北京,北京市教育委员会,农业,本科/高职(专科),116.311673,40.096215
北京林业大学,北京,教育部,林业,本科,116.341404,40.002502
北京协和医学院,北京,国家卫生健康委员会,医药,本科/高职(专科),116.199644,39.943824
首都医科大学,北京,北京市教育委员会,医药,本科/高职(专科),116.353149,39.865326
北京中医药大学,北京,教育部,医药,本科/高职(专科),116.428174,39.971334
北京师范大学,北京,教育部,师范,本科,116.364489,39.964655
首都师范大学,北京,北京市教育委员会,师范,本科,116.323341,39.924248
首都体育学院,北京,北京市教育委员会,体育,本科,116.348564,39.969368
北京外国语大学,北京,教育部,语言,本科,116.312886,39.955213
北京第二外国语学院,北京,北京市教育委员会,语言,本科,116.563419,39.912732
北京语言大学,北京,教育部,语言,本科,116.346393,39.994835
中国传媒大学,北京,教育部,语言,本科/高职(专科),116.556587,39.912792
中央财经大学,北京,教育部,财经,本科,116.342659,39.959511
对外经济贸易大学,北京,教育部,财经,本科,116.308632,39.936787
北京物资学院,北京,北京市教育委员会,财经,本科,116.638282,39.930756
首都经济贸易大学,北京,北京市教育委员会,财经,本科/高职(专科),116.308571,39.979755
中国消防救援学院,北京,应急管理部,综合,本科, , 
外交学院,北京,外交部,语言,本科,116.345581,39.926575
中国人民公安大学,北京,公安部,政法,本科, , 
国际关系学院,北京,其他主管部门1,综合,本科,116.306770,39.992176
北京体育大学,北京,国家体育总局,体育,本科,116.318919,40.024420
中央音乐学院,北京,教育部,艺术,本科,116.308006,39.966522
中国音乐学院,北京,北京市教育委员会,艺术,本科,116.587318,39.913498
中央美术学院,北京,教育部,艺术,本科/高职(专科),114.375816,34.806561
中央戏剧学院,北京,教育部,艺术,本科/高职(专科),116.375961,40.105671
中国戏曲学院,北京,北京市教育委员会,艺术,本科,116.332657,39.863998
北京电影学院,北京,北京市教育委员会,艺术,本科,116.356356,39.970156
北京舞蹈学院,北京,北京市教育委员会,艺术,本科,116.319718,39.947313
中央民族大学,北京,国家民族事务委员会,民族,本科,116.238220,39.863148
中国政法大学,北京,教育部,政法,本科,125.326035,43.841141
华北电力大学(北京),北京,教育部,工科,本科,116.310015,40.089676
北京工业职业技术学院,北京,北京市教育委员会,工科,高职(专科),116.120965,39.960458
北京信息职业技术学院,北京,北京市教育委员会,工科,高职(专科),116.549971,39.964654
北京电子科技职业学院,北京,北京市教育委员会,工科,高职(专科),116.250627,40.117618
北京京北职业技术学院,北京,北京市教育委员会,工科,高职(专科),116.641331,40.339129
首都经济贸易大学密云分校,北京,北京市教育委员会,财经,高职(专科),116.829234,40.368783
中华女子学院,北京,中华全国妇女联合会,语言,本科/高职(专科),116.830879,36.555344
北京信息科技大学,北京,北京市教育委员会,工科,本科,116.381970,39.988892
中国矿业大学(北京),北京,教育部,工科,本科,116.349613,39.999426
中国石油大学(北京),北京,教育部,工科,本科,116.245976,40.220419
中国地质大学(北京),北京,教育部,工科,本科,116.348923,39.991346
北京联合大学,北京,北京市教育委员会,综合,本科/高职(专科),116.427048,39.990882
北京城市学院,北京,北京市教育委员会,综合,本科/高职(专科),116.817318,40.161173
中国青年政治学院,北京,中国共产主义青年团中央,政法,本科,116.307465,39.950058
北京青年政治学院,北京,北京市教育委员会,语言,高职(专科),116.307555,39.950740
首钢工学院,北京,北京市教育委员会,工科,本科/高职(专科),116.203041,39.926117
北京农业职业学院,北京,北京市教育委员会,农业,高职(专科),116.221266,39.771139
北京政法职业学院,北京,北京市教育委员会,政法,高职(专科),116.369338,39.761083
中国劳动关系学院,北京,中华全国总工会,财经,本科/高职(专科),116.317688,39.929466
北京财贸职业学院,北京,北京市教育委员会,财经,高职(专科),116.648107,39.921821
北京北大方正软件职业技术学院,北京,北京市教育委员会,工科,高职(专科), , 
北京经贸职业学院,北京,北京市教育委员会,财经,高职(专科),116.162298,39.721706
北京经济技术职业学院,北京,北京市教育委员会,财经,高职(专科), , 
北京戏曲艺术职业学院,北京,北京市教育委员会,艺术,高职(专科),116.377394,39.856001
北京汇佳职业学院,北京,北京市教育委员会,语言,高职(专科),116.245445,40.193788
北京现代职业技术学院,北京,北京市教育委员会,工科,高职(专科),116.671558,40.118211
北京科技经营管理学院,北京,北京市教育委员会,财经,高职(专科),116.290718,40.144795
北京吉利学院,北京,北京市教育委员会,综合,本科/高职(专科),116.163694,40.176208
首都师范大学科德学院,北京,北京市教育委员会,语言,本科,116.297386,39.785316
北京工商大学嘉华学院,北京,北京市教育委员会,财经,本科,116.732163,39.935465
北京科技职业学院,北京,北京市教育委员会,工科,高职(专科),116.250627,40.117618
北京培黎职业学院,北京,北京市教育委员会,语言,高职(专科),116.345305,40.020755
北京邮电大学世纪学院,北京,北京市教育委员会,综合,本科,115.893467,40.371389
北京工业大学耿丹学院,北京,北京市教育委员会,综合,本科,116.651861,40.215624
北京交通职业技术学院,北京,北京市教育委员会,工科,高职(专科),116.204409,40.228573
北京警察学院,北京,北京市教育委员会,政法,本科,116.171992,40.254585
北京经济管理职业学院,北京,北京市教育委员会,财经,高职(专科),116.474576,39.983956
北京劳动保障职业学院,北京,北京市教育委员会,综合,高职(专科),116.423479,39.985708
北京社会管理职业学院,北京,北京市教育委员会,综合,高职(专科),116.375678,39.755528
北京艺术传媒职业学院,北京,北京市教育委员会,综合,高职(专科),116.120403,40.098452
北京第二外国语学院中瑞酒店管理学院,北京,北京市教育委员会,语言,本科,116.306527,39.619212
北京体育职业学院,北京,北京市教育委员会,体育,高职(专科),116.409813,39.852161
北京交通运输职业学院,北京,北京市教育委员会,综合,高职(专科),116.662283,39.862457
北京卫生职业学院,北京,北京市教育委员会,医药,高职(专科),116.649641,39.901094
中国科学院大学,北京,中国科学院,综合,本科,116.380180,40.003597
北京网络职业学院,北京,北京市教育委员会,综合,高职(专科),116.066692,39.688018
中国社会科学院大学,北京,中国社会科学院,综合,本科,116.179375,39.737598
郑州亚欧交通职业学院,北京,河南省教育厅,综合,高职(专科),113.625368,34.746599
北京大学医学部,北京,教育部,综合,本科/高职(专科),116.358990,39.984304
北京科技大学延庆分校,北京,北京市教育委员会,工科,高职(专科),115.974422,40.472440
北京邮电大学(宏福校区),北京,教育部,工科,本科,116.375299,40.108910
陆军装甲兵学院,北京,中央军委训练管理部,综合,本科,115.637337,23.068914
陆军防化学院,北京,中央军委训练管理部,综合,本科,115.637337,23.068914
战略支援部队航天工程大学,北京,中央军委训练管理部,综合,本科,99.635117,40.373249
武警特种警察学院,北京,中央军委训练管理部,综合,本科,116.292999,39.959202
南开大学,天津,教育部,综合,本科,117.169990,39.103958
天津大学,天津,教育部,工科,本科/高职(专科),117.169884,39.113447
天津科技大学,天津,天津市教育委员会,工科,本科,117.697591,39.089363
天津工业大学,天津,天津市教育委员会,工科,本科/高职(专科),117.058447,39.238504
中国民航大学,天津,中国民用航空局,工科,本科/高职(专科),117.354309,39.102642
天津理工大学,天津,天津市教育委员会,工科,本科,117.140299,39.061907
天津农学院,天津,天津市教育委员会,农业,本科/高职(专科),117.101466,39.091612
天津医科大学,天津,天津市教育委员会,医药,本科,117.185492,39.109119
天津中医药大学,天津,天津市教育委员会,医药,本科,117.166100,39.118152
天津师范大学,天津,天津市教育委员会,师范,本科/高职(专科),117.120394,39.056932
天津职业技术师范大学,天津,天津市教育委员会,师范,本科/高职(专科),117.299122,39.055274
天津外国语大学,天津,天津市教育委员会,语言,本科,117.211191,39.106708
天津商业大学,天津,天津市教育委员会,财经,本科,117.125005,39.180739
天津财经大学,天津,天津市教育委员会,财经,本科,117.278442,39.061219
天津体育学院,天津,天津市教育委员会,体育,本科/高职(专科),117.185425,39.073258
天津音乐学院,天津,天津市教育委员会,艺术,本科,117.229405,39.123825
天津美术学院,天津,天津市教育委员会,艺术,本科,117.197277,39.163464
河北工业大学,天津,河北省教育厅,工科,本科/高职(专科),114.463313,37.977250
天津城建大学,天津,天津市教育委员会,工科,本科,117.095443,39.094966
天津天狮学院,天津,天津市教育委员会,综合,本科/高职(专科),117.073617,39.401872
天津职业大学,天津,天津市教育委员会,工科,高职(专科),117.187361,39.230390
天津医学高等专科学校,天津,天津市教育委员会,医药,高职(专科),117.287368,39.073833
天津中德应用技术大学,天津,天津市教育委员会,工科,本科/高职(专科),117.386266,39.011199
天津滨海职业学院,天津,天津市教育委员会,综合,高职(专科),117.643068,39.068055
天津工程职业技术学院,天津,天津市教育委员会,工科,高职(专科),117.541967,39.074903
天津青年职业学院,天津,天津市教育委员会,语言,高职(专科),117.350331,39.011692
天津渤海职业技术学院,天津,天津市教育委员会,综合,高职(专科),117.362605,39.262737
天津电子信息职业技术学院,天津,天津市教育委员会,工科,高职(专科),117.377794,39.009652
天津机电职业技术学院,天津,天津市教育委员会,工科,高职(专科),117.354745,39.013992
天津现代职业技术学院,天津,天津市教育委员会,综合,高职(专科),117.367952,39.019761
天津公安警官职业学院,天津,天津市教育委员会,政法,高职(专科),117.109859,39.002953
天津轻工职业技术学院,天津,天津市教育委员会,综合,高职(专科),117.373399,39.022386
天津商务职业学院,天津,天津市教育委员会,财经,高职(专科),117.346666,39.010909
天津国土资源和房屋职业学院,天津,天津市教育委员会,综合,高职(专科),117.453491,38.868853
天津开发区职业技术学院,天津,天津市教育委员会,综合,高职(专科),117.700148,39.085913
天津艺术职业学院,天津,天津市教育委员会,艺术,高职(专科),117.275022,39.091412
天津交通职业学院,天津,天津市教育委员会,综合,高职(专科),117.076563,39.149252
河北工业大学城市学院,天津,河北省教育厅,工科,本科,114.463313,37.977250
天津外国语大学滨海外事学院,天津,天津市教育委员会,语言,本科,117.467767,38.861738
天津体育学院运动与文化艺术学院,天津,天津市教育委员会,体育,本科,117.269684,40.043206
天津商业大学宝德学院,天津,天津市教育委员会,财经,本科,117.092931,39.091840
天津医科大学临床医学院,天津,天津市教育委员会,医药,本科,117.461867,38.866335
南开大学滨海学院,天津,天津市教育委员会,综合,本科,117.449561,38.862294
天津工业职业学院,天津,天津市教育委员会,工科,高职(专科),117.200983,39.084158
天津石油职业技术学院,天津,天津市教育委员会,工科,高职(专科),117.218527,38.842807
天津城市职业学院,天津,天津市教育委员会,综合,高职(专科),117.237054,39.149177
天津铁道职业技术学院,天津,天津市教育委员会,工科,高职(专科),117.219850,39.172646
天津师范大学津沽学院,天津,天津市教育委员会,综合,本科,117.124287,39.055417
天津理工大学中环信息学院,天津,天津市教育委员会,综合,本科,117.019405,39.126893
北京科技大学天津学院,天津,天津市教育委员会,综合,本科,116.359375,39.988717
天津工艺美术职业学院,天津,天津市教育委员会,艺术,高职(专科),117.223918,39.173695
天津城市建设管理职业技术学院,天津,天津市教育委员会,综合,高职(专科),117.108708,39.192359
天津生物工程职业技术学院,天津,天津市教育委员会,工科,高职(专科),117.541967,39.074903
天津海运职业学院,天津,天津市教育委员会,综合,高职(专科),117.365449,39.002712
天津大学仁爱学院,天津,天津市教育委员会,综合,本科,117.155600,38.886125
天津财经大学珠江学院,天津,天津市教育委员会,综合,本科,117.406052,39.550752
天津广播影视职业学院,天津,天津市教育委员会,艺术,高职(专科),117.115700,39.120773
天津体育职业学院,天津,天津市教育委员会,体育,高职(专科),117.073519,38.965293
天津滨海汽车工程职业学院,天津,天津市教育委员会,综合,高职(专科),117.473460,38.988451
天津市工会管理干部学院,天津,天津市教育委员会,综合,高职(专科),117.021517,39.145574
陆军军事交通学院,天津,中央军委训练管理部,综合,本科,115.637337,23.068914
河北大学,河北,河北省教育厅,综合,本科/高职(专科),114.548760,38.023420
河北工程大学,河北,河北省教育厅,工科,本科/高职(专科), , 
河北地质大学,河北,河北省教育厅,财经,本科/高职(专科),114.528090,38.020461
华北电力大学(保定),河北,教育部,工科,本科,115.514617,38.889024
华北理工大学,河北,河北省教育厅,综合,本科/高职(专科),118.179192,39.636848
河北科技大学,河北,河北省教育厅,工科,本科/高职(专科),114.534811,38.046379
河北建筑工程学院,河北,河北省教育厅,工科,本科/高职(专科), , 
河北水利电力学院,河北,河北省教育厅,工科,本科/高职(专科),114.468664,38.037057
河北农业大学,河北,河北省教育厅,农业,本科/高职(专科), , 
河北医科大学,河北,河北省教育厅,医药,本科/高职(专科),114.534811,38.046379
河北北方学院,河北,河北省教育厅,医药,本科/高职(专科), , 
承德医学院,河北,河北省教育厅,医药,本科/高职(专科),117.956531,41.033113
河北师范大学,河北,河北省教育厅,师范,本科/高职(专科),114.517366,37.994022
保定学院,河北,河北省教育厅,师范,本科/高职(专科),115.578289,38.880311
河北民族师范学院,河北,河北省教育厅,师范,本科/高职(专科),114.456217,38.011779
唐山师范学院,河北,河北省教育厅,师范,本科/高职(专科),118.173106,39.673655
廊坊师范学院,河北,河北省教育厅,师范,本科/高职(专科),116.670060,39.524921
衡水学院,河北,河北省教育厅,师范,本科/高职(专科),115.661614,37.742653
石家庄学院,河北,河北省教育厅,师范,本科/高职(专科),114.604890,38.035943
邯郸学院,河北,河北省教育厅,师范,本科/高职(专科),114.510107,36.577942
邢台学院,河北,河北省教育厅,师范,本科/高职(专科),114.508051,37.087588
沧州师范学院,河北,河北省教育厅,师范,本科/高职(专科),116.783943,38.285245
石家庄铁道大学,河北,河北省教育厅,工科,本科/高职(专科),114.508511,38.083381
燕山大学,河北,河北省教育厅,工科,本科,119.539719,39.904507
河北科技师范学院,河北,河北省教育厅,师范,本科/高职(专科), , 
河北工业职业技术学院,河北,河北省教育厅,工科,高职(专科),114.461412,37.978896
唐山学院,河北,河北省教育厅,工科,本科/高职(专科),118.166193,39.676367
邯郸职业技术学院,河北,河北省教育厅,综合,高职(专科),114.512111,36.582953
华北科技学院,河北,应急管理部,工科,本科/高职(专科),116.804718,39.953941
中国人民警察大学,河北,公安部,政法,本科,119.184227,34.596611
河北体育学院,河北,河北省教育厅,体育,本科/高职(专科),114.501826,38.123967
石家庄职业技术学院,河北,河北省教育厅,工科,高职(专科),114.405967,38.046485
河北金融学院,河北,河北省教育厅,财经,本科/高职(专科), , 
张家口职业技术学院,河北,河北省教育厅,综合,高职(专科),114.915410,40.733536
北华航天工业学院,河北,河北省教育厅,工科,本科/高职(专科),116.740051,39.529408
防灾科技学院,河北,中国地震局,工科,本科/高职(专科),116.801041,39.953777
承德石油高等专科学校,河北,河北省教育厅,工科,高职(专科),117.962891,40.897662
邢台职业技术学院,河北,河北省教育厅,工科,高职(专科),114.460104,37.083867
河北经贸大学,河北,河北省教育厅,财经,本科/高职(专科),114.492680,38.135026
中央司法警官学院,河北,司法部,政法,本科,115.513985,38.880119
邢台医学高等专科学校,河北,河北省教育厅,医药,高职(专科),114.461724,37.088479
河北软件职业技术学院,河北,河北省教育厅,综合,高职(专科), , 
河北石油职业技术学院,河北,河北省教育厅,工科,高职(专科), , 
河北建材职业技术学院,河北,河北省教育厅,工科,高职(专科), , 
河北政法职业学院,河北,河北省教育厅,政法,高职(专科),114.471581,38.143344
沧州职业技术学院,河北,河北省教育厅,工科,高职(专科),116.823373,38.282151
河北能源职业技术学院,河北,河北省教育厅,工科,高职(专科), , 
石家庄铁路职业技术学院,河北,河北省教育厅,工科,高职(专科),114.501913,38.130361
保定职业技术学院,河北,河北省教育厅,综合,高职(专科),115.470094,38.859531
秦皇岛职业技术学院,河北,河北省教育厅,工科,高职(专科),119.481039,39.839574
石家庄工程职业学院,河北,河北省教育厅,工科,高职(专科),114.437948,38.170599
石家庄城市经济职业学院,河北,河北省教育厅,语言,高职(专科),114.698659,38.044317
河北传媒学院,河北,河北省教育厅,艺术,本科/高职(专科),114.429275,38.096950
唐山职业技术学院,河北,河北省教育厅,医药,高职(专科),118.132729,39.624731
衡水职业技术学院,河北,河北省教育厅,财经,高职(专科),115.681690,37.699939
唐山工业职业技术学院,河北,河北省教育厅,工科,高职(专科),118.568635,39.200462
河北工程技术学院,河北,河北省教育厅,财经,本科/高职(专科),114.448154,38.074556
河北艺术职业学院,河北,河北省教育厅,艺术,高职(专科),114.518376,38.037429
河北旅游职业学院,河北,河北省教育厅,财经,高职(专科), , 
石家庄财经职业学院,河北,河北省教育厅,财经,高职(专科),114.435337,38.168610
河北交通职业技术学院,河北,河北省教育厅,工科,高职(专科),114.642865,38.027035
河北化工医药职业技术学院,河北,河北省教育厅,工科,高职(专科),114.603461,37.988802
石家庄信息工程职业学院,河北,河北省教育厅,工科,高职(专科),114.439337,38.170937
河北对外经贸职业学院,河北,河北省教育厅,语言,高职(专科),114.435337,38.168610
河北美术学院,河北,河北省教育厅,艺术,本科/高职(专科),114.506840,38.044313
河北科技学院,河北,河北省教育厅,工科,本科/高职(专科), , 
保定电力职业技术学院,河北,河北省教育厅,工科,高职(专科),115.451134,38.844472
河北机电职业技术学院,河北,河北省教育厅,工科,高职(专科), , 
渤海石油职业学院,河北,河北省教育厅,工科,高职(专科),116.134300,38.720718
廊坊职业技术学院,河北,河北省教育厅,工科,高职(专科),116.704353,39.526251
唐山科技职业技术学院,河北,河北省教育厅,工科,高职(专科),118.239093,39.597254
石家庄邮电职业技术学院,河北,河北省教育厅,工科,高职(专科),114.531844,38.018586
河北公安警察职业学院,河北,河北省教育厅,政法,高职(专科),114.470957,37.999179
石家庄工商职业学院,河北,河北省教育厅,财经,高职(专科),114.471893,37.995913
石家庄理工职业学院,河北,河北省教育厅,工科,高职(专科),114.352193,38.052312
河北外国语学院,河北,河北省教育厅,综合,本科,114.455365,37.996531
石家庄科技信息职业学院,河北,河北省教育厅,工科,高职(专科),114.459783,37.989061
河北大学工商学院,河北,河北省教育厅,综合,本科,114.470589,37.995789
华北理工大学轻工学院,河北,河北省教育厅,工科,本科,118.159935,39.677254
河北科技大学理工学院,河北,河北省教育厅,工科,本科,114.515648,38.033749
河北师范大学汇华学院,河北,河北省教育厅,师范,本科,114.463861,38.006433
河北经贸大学经济管理学院,河北,河北省教育厅,财经,本科,114.457549,38.015537
河北医科大学临床学院,河北,河北省教育厅,医药,本科,114.550248,38.016910
华北电力大学科技学院,河北,河北省教育厅,工科,本科,115.453178,38.858974
河北工程大学科信学院,河北,河北省教育厅,工科,本科, , 
燕山大学里仁学院,河北,河北省教育厅,工科,本科,119.574501,39.923019
石家庄铁道大学四方学院,河北,河北省教育厅,工科,本科,114.405034,37.884411
河北地质大学华信学院,河北,河北省教育厅,财经,本科,114.771615,38.332057
河北农业大学现代科技学院,河北,河北省教育厅,农业,本科, , 
华北理工大学冀唐学院,河北,河北省教育厅,医药,本科,118.091125,39.583206
河北司法警官职业学院,河北,河北省教育厅,政法,高职(专科),114.446344,38.032517
沧州医学高等专科学校,河北,河北省教育厅,医药,高职(专科),116.803411,38.286467
河北女子职业技术学院,河北,河北省教育厅,语言,高职(专科),114.448624,37.998569
保定理工学院,河北,河北省教育厅,综合,本科,115.490690,38.891492
燕京理工学院,河北,河北省教育厅,综合,本科,116.805763,40.000530
北京中医药大学东方学院,河北,河北省教育厅,综合,本科,116.431845,39.863808
石家庄医学高等专科学校,河北,河北省教育厅,医药,高职(专科),114.457163,37.993553
石家庄经济职业学院,河北,河北省教育厅,财经,高职(专科),114.554092,38.146757
冀中职业学院,河北,河北省教育厅,工科,高职(专科),115.001007,38.516052
石家庄人民医学高等专科学校,河北,河北省教育厅,医药,高职(专科),114.455639,37.992961
石家庄科技工程职业学院,河北,河北省教育厅,工科,高职(专科),114.567606,38.160435
北京交通大学海滨学院,河北,河北省教育厅,工科,本科,116.336880,39.951256
河北劳动关系职业学院,河北,河北省教育厅,综合,高职(专科),114.457503,37.989235
石家庄科技职业学院,河北,河北省教育厅,工科,高职(专科),114.692535,38.035730
河北东方学院,河北,河北省教育厅,综合,高职(专科),114.468664,38.037057
泊头职业学院,河北,河北省教育厅,师范,高职(专科),116.570956,38.077014
宣化科技职业学院,河北,河北省教育厅,综合,高职(专科),115.053611,40.620420
廊坊燕京职业技术学院,河北,河北省教育厅,工科,未知,116.989714,39.970767
承德护理职业学院,河北,河北省教育厅,医药,未知,117.952297,40.952223
石家庄幼儿师范高等专科学校,河北,河北省教育厅,师范,高职(专科),114.345872,38.045340
廊坊卫生职业学院,河北,河北省教育厅,医药,高职(专科),116.736800,39.608801
河北轨道运输职业技术学院,河北,河北省教育厅,工科,高职(专科),114.698520,38.018997
河北中医学院,河北,河北省教育厅,医药,本科/高职(专科),114.455315,38.007760
张家口学院,河北,河北省教育厅,综合,本科/高职(专科),114.869087,40.843079
保定幼儿师范高等专科学校,河北,河北省教育厅,师范,高职(专科),115.924083,39.473769
河北工艺美术职业学院,河北,河北省教育厅,艺术,高职(专科), , 
渤海理工职业学院,河北,河北省教育厅,工科,高职(专科),117.316460,38.391056
唐山幼儿师范高等专科学校,河北,河北省教育厅,师范,高职(专科),118.759259,39.739005
曹妃甸职业技术学院,河北,河北省教育厅,综合,高职(专科),118.599002,39.184128
承德应用技术职业学院,河北,河北省教育厅,综合,高职(专科),117.962410,40.954071
东北大学秦皇岛分校,河北,教育部,工科,本科,119.551812,39.922940
河北地质职工大学,河北,河北省教育厅,工科,高职(专科),114.404797,38.040427
石家庄职工大学,河北,河北省教育厅,综合,高职(专科),114.527841,38.114632
河北环境工程学院,河北,河北省教育厅,综合,本科,114.468664,38.037057
河北青年管理干部学院,河北,河北省教育厅,综合,高职(专科),114.557052,38.029754
山西大学,山西,山西省教育厅,综合,本科,112.588507,37.801171
太原科技大学,山西,山西省教育厅,工科,本科/高职(专科),112.492633,37.875528
中北大学,山西,山西省教育厅,工科,本科/高职(专科),112.443680,39.374947
太原理工大学,山西,山西省教育厅,工科,本科/高职(专科),112.518158,37.859976
山西农业大学,山西,山西省教育厅,农业,本科,112.533838,37.833224
山西医科大学,山西,山西省教育厅,医药,本科/高职(专科),112.554289,37.850181
长治医学院,山西,山西省教育厅,医药,本科/高职(专科),113.118225,36.171339
山西师范大学,山西,山西省教育厅,师范,本科/高职(专科), , 
太原师范学院,山西,山西省教育厅,师范,本科/高职(专科),112.547000,37.834500
山西大同大学,山西,山西省教育厅,综合,本科/高职(专科),113.349610,40.092940
晋中学院,山西,山西省教育厅,师范,本科/高职(专科),112.715163,37.740271
长治学院,山西,山西省教育厅,师范,本科/高职(专科),113.136696,36.208809
运城学院,山西,山西省教育厅,师范,本科/高职(专科),110.932027,35.123960
忻州师范学院,山西,山西省教育厅,师范,本科/高职(专科),112.726510,38.431883
山西财经大学,山西,山西省教育厅,财经,本科,112.586327,37.786757
山西中医药大学,山西,山西省教育厅,医药,本科/高职(专科),112.528714,37.843313
吕梁学院,山西,山西省教育厅,师范,本科/高职(专科),111.143937,37.580583
太原学院,山西,山西省教育厅,工科,本科/高职(专科),112.547480,37.833441
山西财政税务专科学校,山西,山西省教育厅,财经,高职(专科),112.517212,37.852122
山西警察学院,山西,山西省教育厅,政法,本科/高职(专科),112.567022,37.864251
长治职业技术学院,山西,山西省教育厅,工科,高职(专科),113.119136,36.183497
山西艺术职业学院,山西,山西省教育厅,艺术,高职(专科),112.573136,37.852684
晋城职业技术学院,山西,山西省教育厅,工科,高职(专科),112.870713,35.487625
山西建筑职业技术学院,山西,山西省教育厅,工科,高职(专科),112.581964,37.808737
山西药科职业学院,山西,山西省教育厅,医药,高职(专科),112.651310,37.776699
山西工程职业学院,山西,山西省教育厅,工科,高职(专科),112.562398,37.873531
山西交通职业技术学院,山西,山西省教育厅,工科,高职(专科),112.661793,37.750836
山西应用科技学院,山西,山西省教育厅,综合,本科/高职(专科),112.577474,37.623674
大同煤炭职业技术学院,山西,山西省教育厅,工科,高职(专科),113.184154,40.023126
山西机电职业技术学院,山西,山西省教育厅,工科,高职(专科), , 
山西戏剧职业学院,山西,山西省教育厅,艺术,高职(专科),112.559181,37.871032
山西财贸职业技术学院,山西,山西省教育厅,财经,高职(专科),112.654941,37.777348
山西林业职业技术学院,山西,山西省教育厅,林业,高职(专科),112.539578,37.895700
山西水利职业技术学院,山西,山西省教育厅,工科,高职(专科),112.531693,37.889714
阳泉职业技术学院,山西,山西省教育厅,工科,高职(专科),113.578317,37.874566
临汾职业技术学院,山西,山西省教育厅,综合,高职(专科),111.617016,36.058115
山西职业技术学院,山西,山西省教育厅,工科,高职(专科),112.599202,37.811668
山西煤炭职业技术学院,山西,山西省教育厅,工科,高职(专科),112.627487,37.800569
山西金融职业学院,山西,山西省教育厅,财经,高职(专科),112.529717,37.954265
太原城市职业技术学院,山西,山西省教育厅,工科,高职(专科),112.527994,37.889340
山西大学商务学院,山西,山西省教育厅,财经,本科,112.662427,37.742357
太原理工大学现代科技学院,山西,山西省教育厅,工科,本科,112.522369,37.854961
山西农业大学信息学院,山西,山西省教育厅,农业,本科,112.664280,37.742481
山西师范大学现代文理学院,山西,山西省教育厅,师范,本科, , 
中北大学信息商务学院,山西,山西省教育厅,工科,本科,112.640327,37.674572
山西信息职业技术学院,山西,山西省教育厅,工科,高职(专科), , 
太原科技大学华科学院,山西,山西省教育厅,工科,本科,112.508808,37.797526
山西医科大学晋祠学院,山西,山西省教育厅,医药,本科,112.428164,37.685910
山西财经大学华商学院,山西,山西省教育厅,财经,本科,112.580366,37.770456
山西工商学院,山西,山西省教育厅,财经,本科,112.543564,37.644742
山西体育职业学院,山西,山西省教育厅,体育,高职(专科),112.562726,37.780168
山西警官职业学院,山西,山西省教育厅,政法,高职(专科),112.595925,37.822492
山西国际商务职业学院,山西,山西省教育厅,财经,高职(专科),112.600649,37.809999
潞安职业技术学院,山西,山西省教育厅,工科,高职(专科),112.990639,36.441280
太原旅游职业学院,山西,山西省教育厅,语言,高职(专科),112.581588,37.831975
山西旅游职业学院,山西,山西省教育厅,语言,高职(专科),112.620160,37.803700
山西管理职业学院,山西,山西省教育厅,财经,高职(专科), , 
山西电力职业技术学院,山西,山西省教育厅,工科,高职(专科),112.492096,37.777974
忻州职业技术学院,山西,山西省教育厅,财经,高职(专科),112.735220,38.471482
山西同文职业技术学院,山西,山西省教育厅,语言,高职(专科), , 
晋中职业技术学院,山西,山西省教育厅,综合,高职(专科),112.717062,37.691326
山西华澳商贸职业学院,山西,山西省教育厅,财经,高职(专科), , 
山西运城农业职业技术学院,山西,山西省教育厅,农业,高职(专科),111.000157,35.019736
运城幼儿师范高等专科学校,山西,山西省教育厅,师范,高职(专科),111.063220,35.098572
太原工业学院,山西,山西省教育厅,工科,本科/高职(专科),112.540407,37.959379
山西老区职业技术学院,山西,山西省教育厅,综合,高职(专科),112.514598,37.902185
山西经贸职业学院,山西,山西省教育厅,财经,高职(专科),112.449365,37.728821
朔州职业技术学院,山西,山西省教育厅,工科,高职(专科),112.408614,39.303410
运城职业技术学院,山西,山西省教育厅,综合,高职(专科),111.009357,35.071986
山西轻工职业技术学院,山西,山西省教育厅,综合,高职(专科),112.613990,37.881735
晋中师范高等专科学校,山西,山西省教育厅,师范,高职(专科),112.733570,37.725682
阳泉师范高等专科学校,山西,山西省教育厅,师范,高职(专科),113.619460,37.803944
山西青年职业学院,山西,山西省教育厅,综合,高职(专科),112.599711,37.698249
运城护理职业学院,山西,山西省教育厅,医药,高职(专科),110.922836,35.118671
山西传媒学院,山西,山西省教育厅,艺术,本科,112.606250,37.864475
运城师范高等专科学校,山西,山西省教育厅,师范,高职(专科),111.063881,35.098732
朔州师范高等专科学校,山西,山西省教育厅,师范,高职(专科),112.456932,39.372581
吕梁职业技术学院,山西,山西省教育厅,师范,高职(专科),111.771270,37.118604
山西工程技术学院,山西,山西省教育厅,工科,本科,112.549415,37.880880
大同师范高等专科学校,山西,山西省教育厅,师范,高职(专科),113.227937,40.079076
太原幼儿师范高等专科学校,山西,山西省教育厅,师范,高职(专科),112.548879,37.870590
山西卫生健康职业学院,山西,山西省教育厅,医药,高职(专科),112.562398,37.873531
山西能源学院,山西,山西省教育厅,综合,高职(专科),112.562398,37.873531
山西政法管理干部学院,山西,山西省教育厅,综合,高职(专科),112.577596,37.836046
内蒙古大学,内蒙古,内蒙古自治区教育厅,综合,本科/高职(专科),111.690726,40.812259
内蒙古科技大学,内蒙古,内蒙古自治区教育厅,综合,本科/高职(专科),111.702442,40.796866
内蒙古工业大学,内蒙古,内蒙古自治区教育厅,工科,本科/高职(专科),111.684173,40.847165
内蒙古农业大学,内蒙古,内蒙古自治区教育厅,农业,本科/高职(专科),111.704029,40.805411
内蒙古医科大学,内蒙古,内蒙古自治区教育厅,医药,本科/高职(专科),111.438124,40.743445
内蒙古师范大学,内蒙古,内蒙古自治区教育厅,师范,本科/高职(专科),111.788319,40.491279
内蒙古民族大学,内蒙古,内蒙古自治区教育厅,综合,本科/高职(专科), , 
赤峰学院,内蒙古,内蒙古自治区教育厅,综合,本科/高职(专科),118.917203,42.241972
内蒙古财经大学,内蒙古,内蒙古自治区教育厅,财经,本科/高职(专科),111.636621,40.859099
呼伦贝尔学院,内蒙古,内蒙古自治区教育厅,综合,本科/高职(专科),119.782662,49.199725
内蒙古建筑职业技术学院,内蒙古,内蒙古自治区教育厅,工科,高职(专科),111.635155,40.873447
集宁师范学院,内蒙古,内蒙古自治区教育厅,师范,本科/高职(专科),113.143341,41.010836
内蒙古丰州职业学院,内蒙古,内蒙古自治区教育厅,工科,高职(专科),111.516598,40.773917
河套学院,内蒙古,内蒙古自治区教育厅,综合,本科,120.167442,36.249313
呼和浩特民族学院,内蒙古,内蒙古自治区教育厅,语言,本科/高职(专科),111.656340,40.843196
包头职业技术学院,内蒙古,内蒙古自治区教育厅,工科,高职(专科),109.953949,40.644134
兴安职业技术学院,内蒙古,内蒙古自治区教育厅,师范,高职(专科),122.021893,46.104511
呼和浩特职业学院,内蒙古,内蒙古自治区教育厅,综合,高职(专科),111.655965,40.840488
包头轻工职业技术学院,内蒙古,内蒙古自治区教育厅,工科,高职(专科),109.948886,40.636403
内蒙古电子信息职业技术学院,内蒙古,内蒙古自治区教育厅,工科,高职(专科),111.849571,40.898601
内蒙古机电职业技术学院,内蒙古,内蒙古自治区教育厅,工科,高职(专科),111.846742,40.904795
内蒙古化工职业学院,内蒙古,内蒙古自治区教育厅,工科,高职(专科),111.852325,40.906904
内蒙古商贸职业学院,内蒙古,内蒙古自治区教育厅,财经,高职(专科),111.857592,40.898957
锡林郭勒职业学院,内蒙古,内蒙古自治区教育厅,师范,高职(专科),116.027553,43.934605
内蒙古警察职业学院,内蒙古,内蒙古自治区教育厅,政法,高职(专科),111.695329,40.871915
内蒙古体育职业学院,内蒙古,内蒙古自治区教育厅,体育,高职(专科),111.673991,40.859315
乌兰察布职业学院,内蒙古,内蒙古自治区教育厅,财经,高职(专科),113.178739,40.975120
通辽职业学院,内蒙古,内蒙古自治区教育厅,师范,高职(专科),122.259215,43.682670
科尔沁艺术职业学院,内蒙古,内蒙古自治区教育厅,艺术,高职(专科),122.259215,43.682670
内蒙古交通职业技术学院,内蒙古,内蒙古自治区教育厅,工科,高职(专科),111.670264,40.862284
包头钢铁职业技术学院,内蒙古,内蒙古自治区教育厅,工科,高职(专科),109.836028,40.624462
乌海职业技术学院,内蒙古,内蒙古自治区教育厅,工科,高职(专科),106.790486,39.651685
内蒙古科技职业学院,内蒙古,内蒙古自治区教育厅,工科,高职(专科),111.808842,40.855984
内蒙古北方职业技术学院,内蒙古,内蒙古自治区教育厅,综合,高职(专科),111.842710,40.897405
赤峰职业技术学院,内蒙古,内蒙古自治区教育厅,综合,高职(专科), , 
内蒙古经贸外语职业学院,内蒙古,内蒙古自治区教育厅,语言,高职(专科),111.697621,40.895244
包头铁道职业技术学院,内蒙古,内蒙古自治区教育厅,工科,高职(专科),109.950167,40.598446
内蒙古大学创业学院,内蒙古,内蒙古自治区教育厅,综合,本科,111.676306,40.759887
内蒙古师范大学鸿德学院,内蒙古,内蒙古自治区教育厅,师范,本科,111.779309,40.850769
乌兰察布医学高等专科学校,内蒙古,内蒙古自治区教育厅,医药,高职(专科),113.171113,40.979407
鄂尔多斯职业学院,内蒙古,内蒙古自治区教育厅,综合,高职(专科),109.825077,39.616454
内蒙古工业职业学院,内蒙古,内蒙古自治区教育厅,工科,高职(专科),111.798065,40.497395
呼伦贝尔职业技术学院,内蒙古,内蒙古自治区教育厅,工科,高职(专科),119.743233,49.177353
满洲里俄语职业学院,内蒙古,内蒙古自治区教育厅,语言,高职(专科),117.415343,49.609063
内蒙古能源职业学院,内蒙古,内蒙古自治区教育厅,工科,高职(专科),111.664840,40.829561
赤峰工业职业技术学院,内蒙古,内蒙古自治区教育厅,工科,高职(专科),118.873468,42.273238
阿拉善职业技术学院,内蒙古,内蒙古自治区教育厅,工科,高职(专科),105.697359,38.845710
内蒙古美术职业学院,内蒙古,内蒙古自治区教育厅,艺术,高职(专科), , 
内蒙古民族幼儿师范高等专科学校,内蒙古,内蒙古自治区教育厅,师范,高职(专科), , 
鄂尔多斯生态环境职业学院,内蒙古,内蒙古自治区教育厅,农业,高职(专科),109.826426,39.626553
内蒙古艺术学院,内蒙古,内蒙古自治区教育厅,艺术,本科,111.700631,40.830544
鄂尔多斯应用技术学院,内蒙古,内蒙古自治区教育厅,综合,本科,109.825048,39.610762
扎兰屯职业学院,内蒙古,内蒙古自治区教育厅,综合,高职(专科),122.732524,48.030028
内蒙古科技大学包头师范学院,内蒙古,内蒙古自治区教育厅,综合,本科/高职(专科),109.885646,40.655371
内蒙古科技大学包头医学院,内蒙古,内蒙古自治区教育厅,综合,本科/高职(专科),109.982167,40.609092
辽宁大学,辽宁,辽宁省教育厅,综合,本科,123.404758,41.833936
大连理工大学,辽宁,教育部,工科,本科,121.529015,38.880379
沈阳工业大学,辽宁,辽宁省教育厅,工科,本科/高职(专科),123.251658,41.737484
沈阳航空航天大学,辽宁,辽宁省教育厅,工科,本科/高职(专科),123.407899,41.926975
沈阳理工大学,辽宁,辽宁省教育厅,工科,本科/高职(专科),123.493776,41.727830
东北大学,辽宁,教育部,工科,本科,123.419479,41.767193
辽宁科技大学,辽宁,辽宁省教育厅,工科,本科/高职(专科),123.402250,41.829808
辽宁工程技术大学,辽宁,辽宁省教育厅,工科,本科/高职(专科), , 
辽宁石油化工大学,辽宁,辽宁省教育厅,工科,本科/高职(专科),123.234668,41.746311
沈阳化工大学,辽宁,辽宁省教育厅,工科,本科,123.234668,41.746311
大连交通大学,辽宁,辽宁省教育厅,工科,本科/高职(专科),121.586442,38.924206
大连海事大学,辽宁,交通运输部,工科,本科,121.529038,38.869782
大连工业大学,辽宁,辽宁省教育厅,工科,本科,121.526276,38.975506
沈阳建筑大学,辽宁,辽宁省教育厅,工科,本科,123.515950,41.743230
辽宁工业大学,辽宁,辽宁省教育厅,工科,本科/高职(专科), , 
沈阳农业大学,辽宁,辽宁省教育厅,农业,本科/高职(专科),123.570051,41.826563
大连海洋大学,辽宁,辽宁省教育厅,农业,本科/高职(专科),121.555454,38.868233
中国医科大学,辽宁,辽宁省教育厅,医药,本科/高职(专科),123.410439,41.793594
锦州医科大学,辽宁,辽宁省教育厅,医药,本科/高职(专科),121.142633,41.150041
大连医科大学,辽宁,辽宁省教育厅,医药,本科/高职(专科),121.315057,38.804567
辽宁中医药大学,辽宁,辽宁省教育厅,医药,本科/高职(专科),123.434537,41.831615
沈阳药科大学,辽宁,辽宁省教育厅,医药,本科/高职(专科),123.445673,41.768484
沈阳医学院,辽宁,辽宁省教育厅,医药,本科/高职(专科),123.408481,41.888978
辽宁师范大学,辽宁,辽宁省教育厅,师范,本科,123.409541,41.908506
沈阳师范大学,辽宁,辽宁省教育厅,师范,本科/高职(专科),123.412537,41.913624
渤海大学,辽宁,辽宁省教育厅,综合,本科/高职(专科),116.317360,39.983707
鞍山师范学院,辽宁,辽宁省教育厅,师范,本科/高职(专科),122.995967,41.076153
朝阳师范高等专科学校,辽宁,辽宁省教育厅,师范,高职(专科),120.429007,41.531460
大连外国语大学,辽宁,辽宁省教育厅,语言,本科,121.309904,38.812218
东北财经大学,辽宁,辽宁省教育厅,财经,本科,121.549843,38.876686
中国刑事警察学院,辽宁,公安部,政法,本科,123.379776,41.842407
沈阳体育学院,辽宁,辽宁省教育厅,体育,本科,123.388830,41.673295
沈阳音乐学院,辽宁,辽宁省教育厅,艺术,本科,123.428172,41.768839
鲁迅美术学院,辽宁,辽宁省教育厅,艺术,本科,123.430328,41.776409
抚顺师范高等专科学校,辽宁,辽宁省教育厅,师范,高职(专科),123.696549,41.786593
锦州师范高等专科学校,辽宁,辽宁省教育厅,师范,高职(专科),121.155459,41.140470
营口职业技术学院,辽宁,辽宁省教育厅,综合,高职(专科),122.246210,40.660765
铁岭师范高等专科学校,辽宁,辽宁省教育厅,师范,高职(专科),123.794926,42.241250
辽宁对外经贸学院,辽宁,辽宁省教育厅,财经,本科/高职(专科), , 
大连职业技术学院,辽宁,辽宁省教育厅,综合,高职(专科),121.603127,39.023901
沈阳大学,辽宁,辽宁省教育厅,综合,本科,123.457700,41.820811
抚顺职业技术学院,辽宁,辽宁省教育厅,综合,高职(专科),123.692154,41.783977
辽宁农业职业技术学院,辽宁,辽宁省教育厅,农业,高职(专科), , 
辽阳职业技术学院,辽宁,辽宁省教育厅,综合,高职(专科),123.161629,41.289129
阜新高等专科学校,辽宁,辽宁省教育厅,综合,高职(专科),121.631854,41.997559
大连大学,辽宁,辽宁省教育厅,综合,本科/高职(专科),121.823465,39.100645
辽宁科技学院,辽宁,辽宁省教育厅,工科,本科/高职(专科), , 
辽宁警察学院,辽宁,辽宁省教育厅,政法,本科/高职(专科), , 
辽宁省交通高等专科学校,辽宁,辽宁省教育厅,工科,高职(专科),123.511403,41.936252
沈阳工程学院,辽宁,辽宁省教育厅,工科,本科/高职(专科),123.418933,41.919440
辽东学院,辽宁,辽宁省教育厅,财经,本科/高职(专科),124.427567,40.150883
大连民族大学,辽宁,国家民族事务委员会,民族,本科,121.775350,39.047320
盘锦职业技术学院,辽宁,辽宁省教育厅,综合,高职(专科),122.105875,40.728748
沈阳航空职业技术学院,辽宁,辽宁省教育厅,综合,高职(专科),123.429120,41.870092
辽宁体育运动职业技术学院,辽宁,辽宁省教育厅,体育,高职(专科),123.465301,41.745691
辽宁职业学院,辽宁,辽宁省教育厅,农业,高职(专科),123.353547,41.678586
辽宁生态工程职业学院,辽宁,辽宁省教育厅,林业,高职(专科),123.429440,41.835441
沈阳职业技术学院,辽宁,辽宁省教育厅,综合,高职(专科),123.499784,41.870721
辽宁理工职业学院,辽宁,辽宁省教育厅,财经,高职(专科), , 
大连商务职业学院,辽宁,辽宁省教育厅,财经,高职(专科),121.762231,39.055779
辽宁金融职业学院,辽宁,辽宁省教育厅,财经,高职(专科),123.518464,41.938609
辽宁轨道交通职业学院,辽宁,辽宁省教育厅,工科,高职(专科),123.211587,41.751357
辽宁广告职业学院,辽宁,辽宁省教育厅,艺术,高职(专科),123.350197,41.918029
辽宁机电职业技术学院,辽宁,辽宁省教育厅,工科,高职(专科), , 
辽宁经济职业技术学院,辽宁,辽宁省教育厅,综合,高职(专科),123.491995,41.936113
辽宁石化职业技术学院,辽宁,辽宁省教育厅,工科,高职(专科), , 
渤海船舶职业学院,辽宁,辽宁省教育厅,工科,高职(专科),116.563042,39.915794
大连理工大学城市学院,辽宁,辽宁省教育厅,工科,本科,121.770277,39.071618
沈阳工业大学工程学院,辽宁,辽宁省教育厅,工科,本科,123.251658,41.737484
沈阳航空航天大学北方科技学院,辽宁,辽宁省教育厅,工科,本科,123.469771,41.929538
沈阳工学院,辽宁,辽宁省教育厅,工科,本科,123.418956,41.919429
大连工业大学艺术与信息工程学院,辽宁,辽宁省教育厅,工科,本科,121.831967,39.086678
大连科技学院,辽宁,辽宁省教育厅,工科,本科,121.155823,38.782308
沈阳城市建设学院,辽宁,辽宁省教育厅,工科,本科,123.417910,41.674594
中国医科大学临床医药学院,辽宁,辽宁省教育厅,医药,本科,123.412643,41.797981
大连医科大学中山学院,辽宁,辽宁省教育厅,医药,本科,121.512895,38.853756
锦州医科大学医疗学院,辽宁,辽宁省教育厅,医药,本科,121.114308,41.083406
辽宁师范大学海华学院,辽宁,辽宁省教育厅,师范,本科,123.403579,41.681668
辽宁理工学院,辽宁,辽宁省教育厅,综合,本科,123.429440,41.835441
大连财经学院,辽宁,辽宁省教育厅,财经,本科,121.831967,39.086678
沈阳城市学院,辽宁,辽宁省教育厅,综合,本科,123.536576,41.625190
辽宁科技大学信息技术学院,辽宁,辽宁省教育厅,工科,本科,123.402250,41.829808
辽宁石油化工大学顺华能源学院,辽宁,辽宁省教育厅,工科,本科,123.234668,41.746311
大连艺术学院,辽宁,辽宁省教育厅,艺术,本科,121.834323,39.098033
辽宁中医药大学杏林学院,辽宁,辽宁省教育厅,医药,本科,123.420849,41.677526
辽宁何氏医学院,辽宁,辽宁省教育厅,医药,本科/高职(专科),123.723326,41.914626
沈阳科技学院,辽宁,辽宁省教育厅,工科,本科,123.402696,41.681116
大连东软信息学院,辽宁,辽宁省教育厅,工科,本科,121.536595,38.893006
辽宁财贸学院,辽宁,辽宁省教育厅,综合,本科, , 
辽宁传媒学院,辽宁,辽宁省教育厅,艺术,本科,123.415426,41.925041
大连软件职业学院,辽宁,辽宁省教育厅,工科,高职(专科),121.496631,38.936593
大连翻译职业学院,辽宁,辽宁省教育厅,语言,高职(专科),121.756938,39.068082
辽宁商贸职业学院,辽宁,辽宁省教育厅,财经,高职(专科),123.545140,41.824765
大连枫叶职业技术学院,辽宁,辽宁省教育厅,综合,高职(专科),121.307260,38.960618
辽宁装备制造职业技术学院,辽宁,辽宁省教育厅,工科,高职(专科),123.591730,41.909283
辽河石油职业技术学院,辽宁,辽宁省教育厅,工科,高职(专科),121.811104,41.346195
辽宁地质工程职业学院,辽宁,辽宁省教育厅,工科,高职(专科), , 
辽宁铁道职业技术学院,辽宁,辽宁省教育厅,工科,高职(专科), , 
辽宁建筑职业学院,辽宁,辽宁省教育厅,工科,高职(专科), , 
大连航运职业技术学院,辽宁,辽宁省教育厅,工科,高职(专科),121.157881,38.796276
大连装备制造职业技术学院,辽宁,辽宁省教育厅,工科,高职(专科),121.706010,39.202115
大连汽车职业技术学院,辽宁,辽宁省教育厅,综合,高职(专科),121.624442,39.019404
辽宁现代服务职业技术学院,辽宁,辽宁省教育厅,综合,高职(专科),123.591216,41.930902
辽宁冶金职业技术学院,辽宁,辽宁省教育厅,工科,高职(专科), , 
辽宁工程职业学院,辽宁,辽宁省教育厅,工科,高职(专科), , 
辽宁城市建设职业技术学院,辽宁,辽宁省教育厅,工科,高职(专科),123.491972,41.945600
辽宁医药职业学院,辽宁,辽宁省教育厅,医药,高职(专科),123.353144,41.677936
铁岭卫生职业学院,辽宁,辽宁省教育厅,医药,高职(专科),123.903379,42.305829
沈阳北软信息职业技术学院,辽宁,辽宁省教育厅,工科,高职(专科),123.456425,41.926443
辽宁政法职业学院,辽宁,辽宁省教育厅,政法,高职(专科),123.619699,41.839324
营口理工学院,辽宁,辽宁省教育厅,工科,本科,122.246299,40.629450
辽宁民族师范高等专科学校,辽宁,辽宁省教育厅,师范,高职(专科),123.450422,41.832466
辽宁轻工职业学院,辽宁,辽宁省教育厅,工科,高职(专科), , 
辽宁水利职业学院,辽宁,辽宁省教育厅,综合,高职(专科),123.518973,41.941054
辽宁特殊教育师范高等专科学校,辽宁,辽宁省教育厅,综合,高职(专科),123.630424,41.687572
大连理工大学(盘锦校区),辽宁,教育部,工科,本科,121.527223,38.879499
海军大连舰艇学院,辽宁,中央军委训练管理部,综合,本科,121.669038,38.877641
吉林大学,吉林,教育部,综合,本科/高职(专科),125.280441,43.827437
延边大学,吉林,吉林省教育厅,综合,本科/高职(专科),129.488380,42.912091
长春理工大学,吉林,吉林省教育厅,工科,本科,125.313308,43.834725
东北电力大学,吉林,吉林省教育厅,工科,本科/高职(专科),126.504189,43.823273
长春工业大学,吉林,吉林省教育厅,工科,本科/高职(专科),125.299472,43.827263
吉林建筑大学,吉林,吉林省教育厅,工科,本科,125.407666,43.795220
吉林化工学院,吉林,吉林省教育厅,工科,本科, , 
吉林农业大学,吉林,吉林省教育厅,农业,本科/高职(专科),125.410385,43.810433
长春中医药大学,吉林,吉林省教育厅,医药,本科,125.420305,43.829427
东北师范大学,吉林,教育部,师范,本科,125.333496,43.862759
北华大学,吉林,吉林省教育厅,综合,本科/高职(专科),126.562866,43.810677
通化师范学院,吉林,吉林省教育厅,师范,本科/高职(专科),125.988453,41.746543
吉林师范大学,吉林,吉林省教育厅,师范,本科/高职(专科),125.213919,43.780231
吉林工程技术师范学院,吉林,吉林省教育厅,师范,本科/高职(专科),125.318700,43.937565
长春师范大学,吉林,吉林省教育厅,师范,本科,125.392572,43.910114
白城师范学院,吉林,吉林省教育厅,师范,本科/高职(专科),122.808860,45.615384
吉林财经大学,吉林,吉林省教育厅,财经,本科,125.435323,43.818978
吉林体育学院,吉林,吉林省教育厅,体育,本科,125.340033,43.862130
吉林艺术学院,吉林,吉林省教育厅,艺术,本科/高职(专科),125.277974,43.852422
辽源职业技术学院,吉林,吉林省教育厅,工科,高职(专科),125.154959,42.941304
吉林外国语大学,吉林,吉林省教育厅,语言,本科,125.445146,43.822173
四平职业大学,吉林,吉林省教育厅,工科,高职(专科),124.431708,43.091067
吉林工商学院,吉林,吉林省教育厅,财经,本科/高职(专科),125.545669,43.991232
长春汽车工业高等专科学校,吉林,吉林省教育厅,工科,高职(专科),125.146099,43.829376
长春工程学院,吉林,吉林省教育厅,工科,本科/高职(专科),125.281115,43.854532
吉林农业科技学院,吉林,吉林省教育厅,农业,本科/高职(专科), , 
长春金融高等专科学校,吉林,吉林省教育厅,财经,高职(专科),125.327850,43.839026
吉林警察学院,吉林,吉林省教育厅,政法,本科/高职(专科),125.413908,43.826336
长春大学,吉林,吉林省教育厅,综合,本科/高职(专科),125.320911,43.834843
长春医学高等专科学校,吉林,吉林省教育厅,医药,高职(专科),125.427755,43.885750
吉林交通职业技术学院,吉林,吉林省教育厅,工科,高职(专科),125.266506,43.840085
长春东方职业学院,吉林,吉林省教育厅,医药,高职(专科),125.418423,43.821000
吉林司法警官职业学院,吉林,吉林省教育厅,政法,高职(专科),125.178274,44.072570
吉林电子信息职业技术学院,吉林,吉林省教育厅,工科,高职(专科), , 
吉林工业职业技术学院,吉林,吉林省教育厅,工科,高职(专科), , 
吉林工程职业学院,吉林,吉林省教育厅,农业,高职(专科),125.325990,43.896536
长春职业技术学院,吉林,吉林省教育厅,综合,高职(专科),125.368596,43.830720
长春光华学院,吉林,吉林省教育厅,综合,本科,125.434106,43.876890
长春工业大学人文信息学院,吉林,吉林省教育厅,工科,本科/高职(专科),125.428065,43.781540
长春理工大学光电信息学院,吉林,吉林省教育厅,工科,本科,125.238653,43.807493
长春财经学院,吉林,吉林省教育厅,财经,本科,125.413849,43.788588
吉林建筑科技学院,吉林,吉林省教育厅,工科,本科,125.325990,43.896536
长春建筑学院,吉林,吉林省教育厅,工科,本科,125.524463,43.697290
长春科技学院,吉林,吉林省教育厅,综合,本科,125.667549,43.535285
吉林动画学院,吉林,吉林省教育厅,艺术,本科,125.261787,43.820491
吉林师范大学博达学院,吉林,吉林省教育厅,师范,本科,125.213919,43.780231
长春大学旅游学院,吉林,吉林省教育厅,综合,本科/高职(专科),125.520652,43.690171
东北师范大学人文学院,吉林,吉林省教育厅,综合,本科,125.407883,43.822269
吉林医药学院,吉林,吉林省教育厅,医药,本科/高职(专科), , 
白城医学高等专科学校,吉林,吉林省教育厅,医药,高职(专科),122.801253,45.609000
长春信息技术职业学院,吉林,吉林省教育厅,工科,高职(专科),125.212904,43.775016
松原职业技术学院,吉林,吉林省教育厅,综合,高职(专科),124.859119,45.172900
吉林铁道职业技术学院,吉林,吉林省教育厅,工科,高职(专科), , 
白城职业技术学院,吉林,吉林省教育厅,综合,高职(专科),122.805070,45.642428
长白山职业技术学院,吉林,吉林省教育厅,工科,高职(专科),126.441496,41.945537
吉林科技职业技术学院,吉林,吉林省教育厅,工科,高职(专科),125.514374,43.867179
延边职业技术学院,吉林,吉林省教育厅,综合,高职(专科),129.544918,42.916901
吉林城市职业技术学院,吉林,吉林省教育厅,工科,高职(专科),125.267827,44.007045
吉林职业技术学院,吉林,吉林省教育厅,综合,高职(专科),125.266506,43.840085
吉林水利电力职业学院,吉林,吉林省教育厅,工科,高职(专科),125.423114,43.753378
长春健康职业学院,吉林,吉林省教育厅,综合,高职(专科),125.323544,43.817071
长春师范高等专科学校,吉林,吉林省教育厅,师范,高职(专科),125.171886,44.077634
吉林省教育学院,吉林,吉林省教育厅,师范,高职(专科),125.324868,43.826010
吉林省经济管理干部学院,吉林,吉林省教育厅,财经,高职(专科),125.285782,43.835527
空军航空大学,吉林,中央军委训练管理部,综合,本科,125.325066,43.837303
黑龙江大学,黑龙江,黑龙江省教育厅,综合,本科,126.622339,45.708441
哈尔滨工业大学,黑龙江,工业和信息化部,工科,本科,126.632884,45.743721
哈尔滨理工大学,黑龙江,黑龙江省教育厅,工科,本科/高职(专科),126.616657,45.714903
哈尔滨工程大学,黑龙江,工业和信息化部,工科,本科,126.681632,45.776638
黑龙江科技大学,黑龙江,黑龙江省教育厅,工科,本科/高职(专科),126.652580,45.819463
东北石油大学,黑龙江,黑龙江省教育厅,工科,本科/高职(专科),125.149391,46.590740
佳木斯大学,黑龙江,黑龙江省教育厅,综合,本科/高职(专科),130.361339,46.805596
黑龙江八一农垦大学,黑龙江,黑龙江省教育厅,农业,本科, , 
东北农业大学,黑龙江,黑龙江省教育厅,农业,本科,126.726219,45.743717
东北林业大学,黑龙江,教育部,林业,本科, , 
哈尔滨医科大学,黑龙江,黑龙江省教育厅,医药,本科/高职(专科),126.619972,45.701450
黑龙江中医药大学,黑龙江,黑龙江省教育厅,医药,本科/高职(专科),126.647518,45.726826
牡丹江医学院,黑龙江,黑龙江省教育厅,医药,本科/高职(专科),129.580719,44.604183
哈尔滨师范大学,黑龙江,黑龙江省教育厅,师范,本科/高职(专科),126.560915,45.869792
齐齐哈尔大学,黑龙江,黑龙江省教育厅,综合,本科/高职(专科),123.926859,47.353873
牡丹江师范学院,黑龙江,黑龙江省教育厅,师范,本科/高职(专科),129.561043,44.589887
哈尔滨学院,黑龙江,黑龙江省教育厅,综合,本科/高职(专科),126.606999,45.704504
大庆师范学院,黑龙江,黑龙江省教育厅,综合,本科,124.862500,46.637820
绥化学院,黑龙江,黑龙江省教育厅,综合,本科,126.977918,46.624030
齐齐哈尔高等师范专科学校,黑龙江,黑龙江省教育厅,师范,高职(专科),123.973752,47.314421
哈尔滨商业大学,黑龙江,黑龙江省教育厅,财经,本科,126.609094,45.742069
哈尔滨体育学院,黑龙江,黑龙江省教育厅,体育,本科,126.677420,45.760065
哈尔滨金融学院,黑龙江,黑龙江省教育厅,财经,本科/高职(专科),126.736350,45.721920
伊春职业学院,黑龙江,黑龙江省教育厅,综合,高职(专科),128.877567,47.716371
牡丹江大学,黑龙江,黑龙江省教育厅,综合,高职(专科),129.571078,44.592759
齐齐哈尔医学院,黑龙江,黑龙江省教育厅,医药,本科/高职(专科),123.951613,47.378159
黑龙江工业学院,黑龙江,黑龙江省教育厅,工科,本科/高职(专科),126.687310,45.786348
黑龙江东方学院,黑龙江,黑龙江省教育厅,综合,本科,126.661553,45.574417
黑龙江职业学院,黑龙江,黑龙江省教育厅,综合,高职(专科),126.609121,45.716070
哈尔滨信息工程学院,黑龙江,黑龙江省教育厅,工科,本科/高职(专科),127.211303,45.745949
黑龙江工程学院,黑龙江,黑龙江省教育厅,工科,本科/高职(专科),126.525320,45.871021
鹤岗师范高等专科学校,黑龙江,黑龙江省教育厅,师范,高职(专科),130.502223,47.400488
黑龙江建筑职业技术学院,黑龙江,黑龙江省教育厅,工科,高职(专科),126.505579,45.872285
黑龙江艺术职业学院,黑龙江,黑龙江省教育厅,艺术,高职(专科),126.620090,45.732204
大庆职业学院,黑龙江,黑龙江省教育厅,综合,高职(专科),125.150667,46.674384
黑龙江林业职业技术学院,黑龙江,黑龙江省教育厅,林业,高职(专科), , 
黑龙江农业职业技术学院,黑龙江,黑龙江省教育厅,农业,高职(专科),126.554796,45.672329
黑龙江农业工程职业学院,黑龙江,黑龙江省教育厅,农业,高职(专科),126.554839,45.673426
黑龙江农垦职业学院,黑龙江,黑龙江省教育厅,农业,高职(专科),126.529033,45.875968
黑龙江司法警官职业学院,黑龙江,黑龙江省教育厅,政法,高职(专科),126.538720,45.868349
齐齐哈尔工程学院,黑龙江,黑龙江省教育厅,综合,本科/高职(专科),123.966190,47.303601
哈尔滨电力职业技术学院,黑龙江,黑龙江省教育厅,工科,高职(专科),126.698348,45.734464
哈尔滨铁道职业技术学院,黑龙江,黑龙江省教育厅,工科,高职(专科),126.638912,45.578683
大兴安岭职业学院,黑龙江,黑龙江省教育厅,综合,高职(专科),124.111604,50.383059
黑龙江农业经济职业学院,黑龙江,黑龙江省教育厅,农业,高职(专科), , 
哈尔滨职业技术学院,黑龙江,黑龙江省教育厅,综合,高职(专科),126.959418,45.541809
黑龙江外国语学院,黑龙江,黑龙江省教育厅,师范,本科,126.551830,45.858232
黑龙江财经学院,黑龙江,黑龙江省教育厅,财经,本科/高职(专科),126.493246,45.877930
哈尔滨石油学院,黑龙江,黑龙江省教育厅,工科,本科,126.560636,45.847451
黑龙江工商学院,黑龙江,黑龙江省教育厅,农业,本科,126.525320,45.871021
哈尔滨远东理工学院,黑龙江,黑龙江省教育厅,工科,本科/高职(专科),126.531089,45.867030
哈尔滨传媒职业学院,黑龙江,黑龙江省教育厅,综合,高职(专科),126.517367,45.579066
哈尔滨剑桥学院,黑龙江,黑龙江省教育厅,综合,本科,126.659266,45.655469
黑龙江工程学院昆仑旅游学院,黑龙江,黑龙江省教育厅,工科,本科/高职(专科),127.406231,45.746329
哈尔滨广厦学院,黑龙江,黑龙江省教育厅,综合,本科,126.550020,45.875827
哈尔滨华德学院,黑龙江,黑龙江省教育厅,工科,本科,126.540956,45.876838
黑龙江生物科技职业学院,黑龙江,黑龙江省教育厅,农业,高职(专科),126.526051,45.866856
黑龙江商业职业学院,黑龙江,黑龙江省教育厅,财经,高职(专科), , 
黑龙江公安警官职业学院,黑龙江,黑龙江省教育厅,政法,未知,126.538720,45.868349
黑龙江信息技术职业学院,黑龙江,黑龙江省教育厅,工科,高职(专科),126.520963,45.871618
哈尔滨城市职业学院,黑龙江,黑龙江省教育厅,综合,高职(专科),126.800732,45.639626
黑龙江农垦科技职业学院,黑龙江,黑龙江省教育厅,农业,高职(专科),127.191038,45.750307
黑龙江旅游职业技术学院,黑龙江,黑龙江省教育厅,财经,高职(专科),126.614222,45.668494
黑龙江三江美术职业学院,黑龙江,黑龙江省教育厅,艺术,高职(专科),126.619347,45.850811
黑龙江生态工程职业学院,黑龙江,黑龙江省教育厅,林业,高职(专科),126.501528,45.877076
黑龙江能源职业学院,黑龙江,黑龙江省教育厅,工科,高职(专科),126.661669,45.742347
黑河学院,黑龙江,黑龙江省教育厅,综合,本科/高职(专科),127.542139,50.226573
七台河职业学院,黑龙江,黑龙江省教育厅,综合,高职(专科),131.039852,45.778461
黑龙江民族职业学院,黑龙江,黑龙江省教育厅,民族,高职(专科),126.647509,45.577784
大庆医学高等专科学校,黑龙江,黑龙江省教育厅,医药,高职(专科),125.048911,46.601448
黑龙江交通职业技术学院,黑龙江,黑龙江省教育厅,工科,高职(专科), , 
哈尔滨应用职业技术学院,黑龙江,黑龙江省教育厅,工科,高职(专科),126.421073,45.649581
黑龙江幼儿师范高等专科学校,黑龙江,黑龙江省教育厅,师范,高职(专科),126.772392,45.725899
哈尔滨科学技术职业学院,黑龙江,黑龙江省教育厅,工科,高职(专科),126.957529,45.541987
黑龙江粮食职业学院,黑龙江,黑龙江省教育厅,工科,高职(专科),126.609728,45.731192
佳木斯职业学院,黑龙江,黑龙江省教育厅,综合,高职(专科),130.326883,46.792588
黑龙江护理高等专科学校,黑龙江,黑龙江省教育厅,医药,高职(专科),126.613584,45.687292
哈尔滨工程技术职业学院,黑龙江,黑龙江省教育厅,工科,高职(专科), , 
齐齐哈尔理工职业学院,黑龙江,黑龙江省教育厅,工科,高职(专科),123.605755,47.215475
哈尔滨幼儿师范高等专科学校,黑龙江,黑龙江省教育厅,师范,高职(专科),126.772392,45.725899
黑龙江冰雪体育职业学院,黑龙江,黑龙江省教育厅,体育,高职(专科),126.549802,45.860711
哈尔滨音乐学院,黑龙江,黑龙江省教育厅,艺术,本科,126.570548,45.829984
哈尔滨北方航空职业技术学院,黑龙江,黑龙江省教育厅,综合,高职(专科),126.534967,45.803775
黑龙江省农垦管理干部学院,黑龙江,黑龙江省教育厅,综合,高职(专科),126.691381,45.754620
黑龙江省政法管理干部学院,黑龙江,黑龙江省教育厅,政法,高职(专科),126.598953,45.704078
哈尔滨市职工医学院,黑龙江,黑龙江省教育厅,医药,高职(专科),126.612122,45.737115
复旦大学,上海,教育部,综合,本科/高职(专科),121.498718,31.336472
同济大学,上海,教育部,工科,本科/高职(专科),121.210861,31.288713
上海交通大学,上海,教育部,综合,本科,121.425413,31.206075
华东理工大学,上海,教育部,工科,本科,120.568047,31.300606
上海理工大学,上海,上海市教育委员会,工科,本科/高职(专科),121.552116,31.289915
上海海事大学,上海,上海市教育委员会,工科,本科/高职(专科),121.904018,30.871598
东华大学,上海,教育部,工科,本科,121.210938,31.059938
上海电力大学,上海,上海市教育委员会,工科,本科/高职(专科),121.546776,31.275180
上海应用技术大学,上海,上海市教育委员会,工科,本科/高职(专科),121.422595,31.166042
上海健康医学院,上海,上海市教育委员会,医药,本科,121.612071,31.099605
上海海洋大学,上海,上海市教育委员会,农业,本科/高职(专科),121.892161,30.885617
上海中医药大学,上海,上海市教育委员会,医药,本科/高职(专科),121.596755,31.194045
华东师范大学,上海,教育部,师范,本科/高职(专科),121.390923,31.230452
上海师范大学,上海,上海市教育委员会,师范,本科/高职(专科),121.453679,31.031557
上海外国语大学,上海,教育部,语言,本科/高职(专科),121.482501,31.276593
上海财经大学,上海,教育部,财经,本科,121.500850,31.306472
上海对外经贸大学,上海,上海市教育委员会,财经,本科/高职(专科),121.220400,31.047361
上海海关学院,上海,海关总署,综合,本科,121.578106,31.168650
上海旅游高等专科学校,上海,上海市教育委员会,财经,高职(专科),121.512960,30.833541
华东政法大学,上海,上海市教育委员会,政法,本科,121.544403,31.284893
上海体育学院,上海,上海市教育委员会,体育,本科,121.525115,31.312298
上海音乐学院,上海,上海市教育委员会,艺术,本科,121.454490,31.213908
上海戏剧学院,上海,上海市教育委员会,艺术,本科,121.439517,31.217155
上海大学,上海,上海市教育委员会,综合,本科/高职(专科),121.392456,31.315883
上海东海职业技术学院,上海,上海市教育委员会,综合,高职(专科),121.457287,31.029676
上海工商职业技术学院,上海,上海市教育委员会,综合,高职(专科),121.221011,31.248491
上海工程技术大学,上海,上海市教育委员会,工科,本科/高职(专科),121.205007,31.056050
上海立信会计金融学院,上海,上海市教育委员会,财经,本科/高职(专科),121.658334,31.274655
上海电机学院,上海,上海市教育委员会,工科,本科/高职(专科),121.546167,31.273593
上海出版印刷高等专科学校,上海,上海市教育委员会,工科,高职(专科),121.533773,31.289195
上海杉达学院,上海,上海市教育委员会,财经,本科/高职(专科),121.660386,31.270841
上海政法学院,上海,上海市教育委员会,政法,本科/高职(专科),121.175531,31.111621
上海第二工业大学,上海,上海市教育委员会,工科,本科/高职(专科),121.652241,31.260196
上海商学院,上海,上海市教育委员会,财经,本科/高职(专科),121.429694,31.182489
上海行健职业学院,上海,上海市教育委员会,财经,高职(专科),121.432370,31.279910
上海城建职业学院,上海,上海市教育委员会,工科,高职(专科),121.553997,31.325637
上海交通职业技术学院,上海,上海市教育委员会,工科,高职(专科),121.568429,31.261763
上海海事职业技术学院,上海,上海市教育委员会,工科,高职(专科),121.529926,31.239465
上海电子信息职业技术学院,上海,上海市教育委员会,工科,高职(专科),121.696395,30.924982
上海震旦职业学院,上海,上海市教育委员会,财经,高职(专科),121.356197,31.419401
上海民远职业技术学院,上海,上海市教育委员会,工科,高职(专科),121.526413,31.228699
上海欧华职业技术学院,上海,上海市教育委员会,综合,高职(专科),121.696350,30.870963
上海思博职业技术学院,上海,上海市教育委员会,综合,高职(专科),121.780647,31.037624
上海立达学院,上海,上海市教育委员会,综合,高职(专科),121.317863,30.934500
上海工艺美术职业学院,上海,上海市教育委员会,艺术,高职(专科),121.251622,31.408151
上海济光职业技术学院,上海,上海市教育委员会,综合,高职(专科),121.434438,31.365286
上海建桥学院,上海,上海市教育委员会,综合,本科/高职(专科),121.892681,30.891163
上海工商外国语职业学院,上海,上海市教育委员会,语言,高职(专科),121.781603,31.047424
上海科学技术职业学院,上海,上海市教育委员会,综合,高职(专科),121.258280,31.387128
上海农林职业技术学院,上海,上海市教育委员会,农业,高职(专科),121.220342,31.009793
上海邦德职业技术学院,上海,上海市教育委员会,综合,高职(专科),121.401937,31.323086
上海兴伟学院,上海,上海市教育委员会,工科,本科/高职(专科),121.786694,31.041569
上海中侨职业技术学院,上海,上海市教育委员会,综合,高职(专科),121.304713,30.798016
上海建峰职业技术学院,上海,上海市教育委员会,综合,高职(专科),121.466397,31.405979
上海视觉艺术学院,上海,上海市教育委员会,艺术,本科,121.206026,31.046410
上海外国语大学贤达经济人文学院,上海,上海市教育委员会,财经,本科,121.832816,31.485250
上海电影艺术职业学院,上海,上海市教育委员会,艺术,高职(专科),121.585084,31.191728
上海师范大学天华学院,上海,上海市教育委员会,综合,本科,121.201818,31.408072
上海中华职业技术学院,上海,上海市教育委员会,工科,高职(专科), , 
上海工会管理职业学院,上海,上海市教育委员会,综合,高职(专科),121.413347,30.908251
上海体育职业学院,上海,上海市教育委员会,体育,高职(专科),121.431662,31.141778
上海民航职业技术学院,上海,中国民用航空局,工科,高职(专科),121.455701,31.171719
上海科技大学,上海,上海市教育委员会,综合,本科,121.594607,31.173440
上海纽约大学,上海,上海市教育委员会,综合,本科,121.534210,31.225908
复旦大学医学院,上海,教育部,医药,本科,121.505600,31.294676
上海交通大学医学院,上海,教育部,医药,本科,121.472194,31.212336
海军军医大学,上海,中央军委训练管理部,综合,本科,110.104691,19.443855
南京大学,江苏,教育部,综合,本科,118.961365,32.110012
苏州大学,江苏,江苏省教育厅,综合,本科,120.641182,31.302245
东南大学,江苏,教育部,综合,本科,120.376091,31.482067
南京航空航天大学,江苏,工业和信息化部,工科,本科,118.820289,32.035021
南京理工大学,江苏,工业和信息化部,工科,本科,118.857244,32.026884
江苏科技大学,江苏,江苏省教育厅,工科,本科,118.780018,32.049768
中国矿业大学,江苏,教育部,工科,本科,117.200020,34.221153
南京工业大学,江苏,江苏省教育厅,工科,本科,118.642381,32.077725
常州大学,江苏,江苏省教育厅,工科,本科,119.957948,31.683504
南京邮电大学,江苏,江苏省教育厅,综合,本科,118.814249,32.070478
河海大学,江苏,教育部,工科,本科,119.980309,31.818939
江南大学,江苏,教育部,综合,本科, , 
南京林业大学,江苏,江苏省教育厅,林业,本科,118.816826,32.078682
江苏大学,江苏,江苏省教育厅,综合,本科,118.704677,32.178798
南京信息工程大学,江苏,江苏省教育厅,工科,本科,118.715506,32.203356
江苏城市职业学院,江苏,江苏省教育厅,工科,高职(专科),118.823209,32.128625
南通大学,江苏,江苏省教育厅,综合,本科/高职(专科),120.906396,31.975851
盐城工学院,江苏,江苏省教育厅,工科,本科,120.176971,33.400136
南京农业大学,江苏,教育部,农业,本科,118.839686,32.033444
南京医科大学,江苏,江苏省教育厅,医药,本科,118.890830,31.938011
徐州医科大学,江苏,江苏省教育厅,医药,本科/高职(专科),117.255474,34.264709
南京中医药大学,江苏,江苏省教育厅,医药,本科/高职(专科),118.945416,32.101878
中国药科大学,江苏,教育部,医药,本科/高职(专科),118.914024,31.897751
南京师范大学,江苏,江苏省教育厅,师范,本科/高职(专科),118.912273,32.102630
江苏师范大学,江苏,江苏省教育厅,师范,本科,118.746157,32.019857
淮阴师范学院,江苏,江苏省教育厅,师范,本科,119.005457,33.641576
盐城师范学院,江苏,江苏省教育厅,师范,本科,120.157592,33.383776
南京财经大学,江苏,江苏省教育厅,财经,本科,118.761354,32.085109
江苏警官学院,江苏,江苏省教育厅,政法,本科/高职(专科),118.758882,31.993358
南京体育学院,江苏,江苏省教育厅,体育,本科/高职(专科),118.867050,32.044344
南京艺术学院,江苏,江苏省教育厅,艺术,本科,118.753434,32.062838
苏州科技大学,江苏,江苏省教育厅,工科,本科,120.557030,31.265566
常熟理工学院,江苏,江苏省教育厅,综合,本科,120.736697,31.608656
明达职业技术学院,江苏,江苏省教育厅,语言,高职(专科),120.337517,33.785889
无锡职业技术学院,江苏,江苏省教育厅,工科,高职(专科),120.269258,31.496461
江苏建筑职业技术学院,江苏,江苏省教育厅,工科,高职(专科), , 
南京工业职业技术学院,江苏,江苏省教育厅,工科,高职(专科),118.940552,32.121322
江苏工程职业技术学院,江苏,江苏省教育厅,工科,高职(专科),118.832402,32.017156
苏州工艺美术职业技术学院,江苏,江苏省教育厅,艺术,高职(专科),120.585941,31.230302
金陵科技学院,江苏,江苏省教育厅,综合,本科,118.811218,32.121738
淮阴工学院,江苏,江苏省教育厅,工科,本科,119.036003,33.552653
连云港职业技术学院,江苏,江苏省教育厅,工科,高职(专科),119.242737,34.663057
镇江市高等专科学校,江苏,江苏省教育厅,工科,高职(专科),119.476015,32.196432
南通职业大学,江苏,江苏省教育厅,工科,高职(专科),120.893727,32.008375
徐州工程学院,江苏,江苏省教育厅,工科,本科/高职(专科),117.207931,34.216056
苏州职业大学,江苏,江苏省教育厅,工科,高职(专科),120.597358,31.223389
常州工学院,江苏,江苏省教育厅,工科,本科,119.943923,31.870371
扬州大学,江苏,江苏省教育厅,综合,本科/高职(专科),119.421630,32.388299
三江学院,江苏,江苏省教育厅,综合,本科/高职(专科), , 
南京工程学院,江苏,江苏省教育厅,工科,本科,118.881403,31.925978
南京审计大学,江苏,江苏省教育厅,财经,本科,118.751979,32.039644
沙洲职业工学院,江苏,江苏省教育厅,工科,高职(专科),120.586510,31.904804
南京晓庄学院,江苏,江苏省教育厅,师范,本科,118.751550,32.037281
扬州市职业大学,江苏,江苏省教育厅,工科,高职(专科),119.380378,32.395730
江苏理工学院,江苏,江苏省教育厅,工科,本科, , 
南京森林警察学院,江苏,公安部,政法,本科/高职(专科),118.825305,32.083593
江苏海洋大学,江苏,江苏省教育厅,工科,本科, , 
连云港师范高等专科学校,江苏,江苏省教育厅,师范,高职(专科),119.227977,34.646652
泰州学院,江苏,江苏省教育厅,师范,高职(专科),119.938276,32.475661
江苏经贸职业技术学院,江苏,江苏省教育厅,财经,高职(专科),118.884906,31.931496
南京特殊教育师范学院,江苏,江苏省教育厅,师范,高职(专科),118.829971,32.127929
九州职业技术学院,江苏,江苏省教育厅,工科,高职(专科),117.161346,34.184204
南通理工学院,江苏,江苏省教育厅,工科,高职(专科),120.808779,32.043221
硅湖职业技术学院,江苏,江苏省教育厅,工科,高职(专科),121.139481,31.283648
泰州职业技术学院,江苏,江苏省教育厅,工科,高职(专科),119.940309,32.487535
常州信息职业技术学院,江苏,江苏省教育厅,工科,高职(专科),119.954478,31.678205
江苏海事职业技术学院,江苏,江苏省教育厅,工科,高职(专科),118.907599,31.918286
应天职业技术学院,江苏,江苏省教育厅,工科,高职(专科),118.916801,32.087803
无锡科技职业学院,江苏,江苏省教育厅,工科,高职(专科),120.389992,31.519877
江苏医药职业学院,江苏,江苏省教育厅,医药,高职(专科),118.763232,32.061707
扬州环境资源职业技术学院,江苏,江苏省教育厅,农业,高职(专科),119.393466,32.337750
南通科技职业学院,江苏,江苏省教育厅,农业,高职(专科),120.891910,32.004337
苏州经贸职业技术学院,江苏,江苏省教育厅,财经,高职(专科),120.566300,31.252666
苏州工业职业技术学院,江苏,江苏省教育厅,工科,高职(专科),120.589630,31.217165
苏州托普信息职业技术学院,江苏,江苏省教育厅,工科,高职(专科),120.845970,31.462479
苏州卫生职业技术学院,江苏,江苏省教育厅,医药,高职(专科),120.585120,31.260603
东南大学成贤学院,江苏,江苏省教育厅,综合,本科,118.704735,32.153465
无锡商业职业技术学院,江苏,江苏省教育厅,财经,高职(专科),120.173646,31.561108
南通航运职业技术学院,江苏,江苏省教育厅,工科,高职(专科),120.962968,31.916645
南京交通职业技术学院,江苏,江苏省教育厅,工科,高职(专科),118.912539,31.912155
淮安信息职业技术学院,江苏,江苏省教育厅,工科,高职(专科),119.046593,33.551597
江苏农牧科技职业学院,江苏,江苏省教育厅,农业,高职(专科), , 
常州纺织服装职业技术学院,江苏,江苏省教育厅,工科,高职(专科),119.940294,31.685827
苏州农业职业技术学院,江苏,江苏省教育厅,农业,高职(专科),120.581668,31.313968
苏州工业园区职业技术学院,江苏,江苏省教育厅,工科,高职(专科),120.589685,31.217083
太湖创意职业技术学院,江苏,江苏省教育厅,工科,高职(专科), , 
炎黄职业技术学院,江苏,江苏省教育厅,工科,高职(专科),119.253105,33.789360
南京科技职业学院,江苏,江苏省教育厅,工科,高职(专科),118.752553,32.235216
正德职业技术学院,江苏,江苏省教育厅,工科,高职(专科),118.784882,31.939199
钟山职业技术学院,江苏,江苏省教育厅,工科,高职(专科), , 
无锡南洋职业技术学院,江苏,江苏省教育厅,工科,高职(专科),120.245471,31.494601
江南影视艺术职业学院,江苏,江苏省教育厅,艺术,高职(专科), , 
金肯职业技术学院,江苏,江苏省教育厅,财经,高职(专科),118.879860,31.685005
常州工业职业技术学院,江苏,江苏省教育厅,工科,高职(专科),119.973987,31.810689
常州工程职业技术学院,江苏,江苏省教育厅,工科,高职(专科),119.946423,31.684264
江苏农林职业技术学院,江苏,江苏省教育厅,农业,高职(专科), , 
江苏食品药品职业技术学院,江苏,江苏省教育厅,工科,高职(专科), , 
建东职业技术学院,江苏,江苏省教育厅,工科,高职(专科),118.817528,32.035263
南京铁道职业技术学院,江苏,江苏省教育厅,工科,高职(专科),118.699193,32.101317
徐州工业职业技术学院,江苏,江苏省教育厅,工科,高职(专科),117.142589,34.299445
江苏信息职业技术学院,江苏,江苏省教育厅,工科,高职(专科),118.941716,32.128885
宿迁职业技术学院,江苏,江苏省教育厅,工科,高职(专科),118.289384,34.020362
南京信息职业技术学院,江苏,江苏省教育厅,工科,高职(专科),118.941716,32.128885
江海职业技术学院,江苏,江苏省教育厅,工科,高职(专科), , 
常州机电职业技术学院,江苏,江苏省教育厅,工科,高职(专科),119.947043,31.678288
江阴职业技术学院,江苏,江苏省教育厅,工科,高职(专科),120.245853,31.873360
无锡太湖学院,江苏,江苏省教育厅,综合,本科,120.225758,31.570275
中国矿业大学徐海学院,江苏,江苏省教育厅,工科,本科,117.198448,34.222073
南京大学金陵学院,江苏,江苏省教育厅,综合,本科,118.706076,32.176591
南京理工大学紫金学院,江苏,江苏省教育厅,工科,本科,118.934389,32.125994
南京航空航天大学金城学院,江苏,江苏省教育厅,工科,本科,118.884570,31.701303
中国传媒大学南广学院,江苏,江苏省教育厅,艺术,本科,118.889404,31.882385
无锡城市职业技术学院,江苏,江苏省教育厅,财经,高职(专科),120.184348,31.583868
无锡工艺职业技术学院,江苏,江苏省教育厅,工科,高职(专科),119.834027,31.339363
金山职业技术学院,江苏,江苏省教育厅,工科,高职(专科),121.306083,30.796547
苏州健雄职业技术学院,江苏,江苏省教育厅,工科,高职(专科),121.134763,31.412115
盐城工业职业技术学院,江苏,江苏省教育厅,工科,高职(专科),120.174851,33.321488
江苏财经职业技术学院,江苏,江苏省教育厅,财经,高职(专科), , 
扬州工业职业技术学院,江苏,江苏省教育厅,工科,高职(专科),119.398156,32.335660
南京理工大学泰州科技学院,江苏,江苏省教育厅,工科,本科,118.857244,32.026884
南京师范大学泰州学院,江苏,江苏省教育厅,师范,本科,118.912273,32.102630
南京工业大学浦江学院,江苏,江苏省教育厅,综合,本科,119.054221,32.018581
南京师范大学中北学院,江苏,江苏省教育厅,综合,本科,118.912784,32.101743
苏州百年职业学院,江苏,江苏省教育厅,综合,高职(专科),120.743095,31.274638
昆山登云科技职业学院,江苏,江苏省教育厅,工科,高职(专科),120.891942,31.390629
南京视觉艺术职业学院,江苏,江苏省教育厅,艺术,高职(专科),118.926741,31.747338
南京医科大学康达学院,江苏,江苏省教育厅,综合,本科,118.773583,32.042250
南京中医药大学翰林学院,江苏,江苏省教育厅,综合,本科,118.945416,32.101878
南京信息工程大学滨江学院,江苏,江苏省教育厅,综合,本科,118.708750,32.199370
苏州大学文正学院,江苏,江苏省教育厅,综合,本科,120.584687,31.217882
苏州大学应用技术学院,江苏,江苏省教育厅,综合,本科,120.843127,31.149010
苏州科技大学天平学院,江苏,江苏省教育厅,综合,本科,120.557089,31.265497
江苏大学京江学院,江苏,江苏省教育厅,综合,本科,118.704677,32.178798
扬州大学广陵学院,江苏,江苏省教育厅,综合,本科,119.423864,32.385920
江苏师范大学科文学院,江苏,江苏省教育厅,综合,本科,118.746157,32.019857
南京邮电大学通达学院,江苏,江苏省教育厅,综合,本科,118.933348,32.118351
南京财经大学红山学院,江苏,江苏省教育厅,综合,本科,118.761363,32.085232
江苏科技大学苏州理工学院,江苏,江苏省教育厅,综合,本科,120.571195,31.892313
常州大学怀德学院,江苏,江苏省教育厅,综合,本科,119.907488,31.780658
南通大学杏林学院,江苏,江苏省教育厅,综合,本科,120.904279,32.017137
南京审计大学金审学院,江苏,江苏省教育厅,综合,本科,118.917127,32.087258
南京机电职业技术学院,江苏,江苏省教育厅,工科,高职(专科),118.781169,32.100015
宿迁学院,江苏,江苏省教育厅,综合,本科,118.296653,33.929758
苏州高博软件技术职业学院,江苏,江苏省教育厅,工科,高职(专科),120.417883,31.320712
南京旅游职业学院,江苏,江苏省教育厅,财经,高职(专科),118.891427,31.928879
江苏卫生健康职业学院,江苏,江苏省教育厅,医药,高职(专科),118.610988,32.076083
苏州信息职业技术学院,江苏,江苏省教育厅,综合,高职(专科),120.633103,31.135585
宿迁泽达职业技术学院,江苏,江苏省教育厅,工科,高职(专科),118.283344,34.020722
苏州工业园区服务外包职业学院,江苏,江苏省教育厅,工科,高职(专科),120.750411,31.256757
徐州幼儿师范高等专科学校,江苏,江苏省教育厅,师范,高职(专科),117.247450,34.292409
徐州生物工程职业技术学院,江苏,江苏省教育厅,工科,高职(专科),117.131971,34.261766
南京城市职业学院,江苏,江苏省教育厅,综合,高职(专科),118.823209,32.128625
江苏第二师范学院,江苏,江苏省教育厅,师范,本科/高职(专科),118.754674,32.058518
江苏商贸职业学院,江苏,江苏省教育厅,综合,高职(专科), , 
南通师范高等专科学校,江苏,江苏省教育厅,师范,高职(专科),120.873821,32.004854
扬州中瑞酒店职业学院,江苏,江苏省教育厅,财经,高职(专科),119.355406,32.369271
江苏护理职业学院,江苏,江苏省教育厅,医药,高职(专科),118.763232,32.061707
江苏财会职业学院,江苏,江苏省教育厅,财经,高职(专科),118.763232,32.061707
江苏城乡建设职业学院,江苏,江苏省教育厅,工科,高职(专科),118.763232,32.061707
江苏航空职业技术学院,江苏,江苏省教育厅,工科,高职(专科),118.763232,32.061707
江苏安全技术职业学院,江苏,江苏省教育厅,工科,高职(专科),118.763232,32.061707
江苏旅游职业学院,江苏,江苏省教育厅,综合,高职(专科),118.891427,31.928879
盐城幼儿师范高等专科学校,江苏,江苏省教育厅,师范,高职(专科),120.177132,33.307459
苏州幼儿师范高等专科学校,江苏,江苏省教育厅,师范,高职(专科),120.669698,31.381589
西交利物浦大学,江苏,江苏省教育厅,工科,本科,120.738777,31.273245
昆山杜克大学,江苏,江苏省教育厅,综合,本科,120.897104,31.415386
中国人民大学(苏州校区),江苏,教育部,综合,本科,120.733125,31.276664
江苏省青年管理干部学院,江苏,江苏省教育厅,工科,高职(专科),118.817344,32.047466
陆军工程大学,江苏,中央军委训练管理部,综合,本科,115.637337,23.068914
浙江大学,浙江,教育部,综合,本科,120.164517,30.292956
杭州电子科技大学,浙江,浙江省教育厅,工科,本科,120.343200,30.314207
浙江工业大学,浙江,浙江省教育厅,工科,本科,120.164168,30.290749
浙江理工大学,浙江,浙江省教育厅,工科,本科,120.353460,30.313541
浙江海洋大学,浙江,浙江省教育厅,农业,本科/高职(专科), , 
浙江农林大学,浙江,浙江省教育厅,林业,本科,119.729509,30.233838
温州医科大学,浙江,浙江省教育厅,医药,本科/高职(专科),120.709642,27.920881
浙江中医药大学,浙江,浙江省教育厅,医药,本科,120.148652,30.175077
浙江师范大学,浙江,浙江省教育厅,师范,本科/高职(专科),120.139284,30.282408
杭州师范大学,浙江,浙江省教育厅,师范,本科,120.394204,30.315728
湖州师范学院,浙江,浙江省教育厅,师范,本科/高职(专科),120.134117,30.874626
绍兴文理学院,浙江,浙江省教育厅,师范,本科/高职(专科),120.571268,29.981140
台州学院,浙江,浙江省教育厅,综合,本科/高职(专科),121.388423,28.650662
温州大学,浙江,浙江省教育厅,工科,本科,120.695224,27.917666
丽水学院,浙江,浙江省教育厅,师范,本科/高职(专科),119.903648,28.456803
浙江工商大学,浙江,浙江省教育厅,财经,本科,120.136420,30.284551
嘉兴学院,浙江,浙江省教育厅,财经,本科/高职(专科),120.720484,30.736445
中国美术学院,浙江,浙江省教育厅,艺术,本科/高职(专科),117.181885,31.831751
中国计量大学,浙江,浙江省教育厅,工科,本科,120.363907,30.318892
公安海警学院,浙江,公安部,政法,本科/高职(专科), , 
宁波职业技术学院,浙江,浙江省教育厅,综合,高职(专科),121.821980,29.891968
温州职业技术学院,浙江,浙江省教育厅,综合,高职(专科),120.699521,27.922661
浙江万里学院,浙江,浙江省教育厅,工科,本科, , 
浙江科技学院,浙江,浙江省教育厅,工科,本科,120.024421,30.218984
宁波工程学院,浙江,浙江省教育厅,工科,本科,121.613244,29.909587
浙江水利水电学院,浙江,浙江省教育厅,工科,本科,120.374055,30.314254
浙江财经大学,浙江,浙江省教育厅,财经,本科,120.395270,30.320835
浙江警察学院,浙江,浙江省教育厅,政法,本科,119.734534,30.277839
衢州学院,浙江,浙江省教育厅,工科,本科/高职(专科),118.868376,28.981067
宁波大学,浙江,浙江省教育厅,综合,本科/高职(专科),121.635098,29.911925
浙江传媒学院,浙江,浙江省教育厅,语言,本科/高职(专科),120.343578,30.320705
浙江树人学院,浙江,浙江省教育厅,工科,本科/高职(专科),120.158426,30.318436
浙江医药高等专科学校,浙江,浙江省教育厅,医药,高职(专科),120.160613,30.172158
浙江交通职业技术学院,浙江,浙江省教育厅,工科,高职(专科),120.087930,30.343687
金华职业技术学院,浙江,浙江省教育厅,综合,高职(专科),119.636423,29.062591
宁波城市职业技术学院,浙江,浙江省教育厅,综合,高职(专科),121.573081,29.807537
浙江电力职业技术学院,浙江,浙江省教育厅,综合,高职(专科),120.151376,30.321252
浙江同济科技职业学院,浙江,浙江省教育厅,工科,高职(专科),120.309609,30.244514
浙江工商职业技术学院,浙江,浙江省教育厅,财经,高职(专科),120.163720,30.175140
台州职业技术学院,浙江,浙江省教育厅,工科,高职(专科),121.399144,28.652140
浙江工贸职业技术学院,浙江,浙江省教育厅,综合,高职(专科), , 
浙江越秀外国语学院,浙江,浙江省教育厅,语言,本科/高职(专科), , 
浙江机电职业技术学院,浙江,浙江省教育厅,工科,高职(专科),120.152670,30.175650
浙江建设职业技术学院,浙江,浙江省教育厅,工科,高职(专科),120.297867,30.246872
浙江艺术职业学院,浙江,浙江省教育厅,艺术,高职(专科),120.156695,30.174450
浙江经贸职业技术学院,浙江,浙江省教育厅,财经,高职(专科),120.382773,30.316655
浙江商业职业技术学院,浙江,浙江省教育厅,财经,高职(专科),120.163720,30.175140
浙江经济职业技术学院,浙江,浙江省教育厅,财经,高职(专科),120.379028,30.308939
浙江旅游职业学院,浙江,浙江省教育厅,财经,高职(专科),120.303825,30.245401
浙江育英职业技术学院,浙江,浙江省教育厅,财经,高职(专科),120.351229,30.304760
浙江警官职业学院,浙江,浙江省教育厅,政法,高职(专科),120.358675,30.315005
浙江金融职业学院,浙江,浙江省教育厅,财经,高职(专科),120.382731,30.320783
浙江工业职业技术学院,浙江,浙江省教育厅,综合,高职(专科),120.252971,30.155814
杭州职业技术学院,浙江,浙江省教育厅,综合,高职(专科),120.353213,30.320834
嘉兴职业技术学院,浙江,浙江省教育厅,综合,高职(专科),120.711070,30.742760
湖州职业技术学院,浙江,浙江省教育厅,综合,高职(专科),120.131909,30.877592
绍兴职业技术学院,浙江,浙江省教育厅,工科,高职(专科),120.559958,29.981887
衢州职业技术学院,浙江,浙江省教育厅,工科,高职(专科),118.866033,28.977390
丽水职业技术学院,浙江,浙江省教育厅,综合,高职(专科),119.907544,28.474314
宁波财经学院,浙江,浙江省教育厅,工科,本科/高职(专科),121.481430,29.886730
浙江东方职业技术学院,浙江,浙江省教育厅,综合,高职(专科), , 
义乌工商职业技术学院,浙江,浙江省教育厅,综合,高职(专科),120.098716,29.297709
浙江大学城市学院,浙江,浙江省教育厅,工科,本科,120.156311,30.325636
浙江大学宁波理工学院,浙江,浙江省教育厅,工科,本科,121.574466,29.814989
杭州医学院,浙江,浙江省教育厅,医药,本科/高职(专科),120.158787,30.172786
浙江纺织服装职业技术学院,浙江,浙江省教育厅,工科,高职(专科), , 
杭州科技职业技术学院,浙江,浙江省教育厅,工科,高职(专科),119.899067,30.086875
浙江长征职业技术学院,浙江,浙江省教育厅,综合,高职(专科),120.019595,30.207926
嘉兴南洋职业技术学院,浙江,浙江省教育厅,工科,高职(专科),120.704694,30.787315
浙江广厦建设职业技术学院,浙江,浙江省教育厅,工科,高职(专科), , 
杭州万向职业技术学院,浙江,浙江省教育厅,综合,高职(专科),120.073946,30.253491
浙江工业大学之江学院,浙江,浙江省教育厅,工科,本科,120.079553,30.167695
浙江师范大学行知学院,浙江,浙江省教育厅,综合,本科,120.139284,30.282408
宁波大学科学技术学院,浙江,浙江省教育厅,综合,本科,121.630965,29.914650
杭州电子科技大学信息工程学院,浙江,浙江省教育厅,工科,本科,119.822894,30.290687
浙江理工大学科技与艺术学院,浙江,浙江省教育厅,工科,本科,120.023388,30.283602
浙江海洋大学东海科学技术学院,浙江,浙江省教育厅,农业,本科,120.142604,30.279731
浙江农林大学暨阳学院,浙江,浙江省教育厅,林业,本科,119.729509,30.233838
温州医科大学仁济学院,浙江,浙江省教育厅,医药,本科,120.710226,27.919849
浙江中医药大学滨江学院,浙江,浙江省教育厅,医药,本科,120.147944,30.175256
杭州师范大学钱江学院,浙江,浙江省教育厅,师范,本科,120.391327,30.316359
湖州师范学院求真学院,浙江,浙江省教育厅,师范,本科,120.131823,30.874129
绍兴文理学院元培学院,浙江,浙江省教育厅,师范,本科,120.540562,30.069518
温州大学瓯江学院,浙江,浙江省教育厅,师范,本科,120.710090,27.930238
浙江工商大学杭州商学院,浙江,浙江省教育厅,财经,本科,119.744356,29.827681
嘉兴学院南湖学院,浙江,浙江省教育厅,财经,本科,120.729265,30.743111
中国计量大学现代科技学院,浙江,浙江省教育厅,工科,本科,120.363907,30.318892
浙江财经大学东方学院,浙江,浙江省教育厅,财经,本科,120.113306,30.284894
温州商学院,浙江,浙江省教育厅,综合,本科/高职(专科),120.692047,27.918283
浙江邮电职业技术学院,浙江,浙江省教育厅,工科,高职(专科),120.151005,30.282022
宁波卫生职业技术学院,浙江,浙江省教育厅,医药,高职(专科),121.567994,29.806391
台州科技职业学院,浙江,浙江省教育厅,综合,高职(专科),121.260888,28.665974
浙江国际海运职业技术学院,浙江,浙江省教育厅,综合,高职(专科), , 
浙江体育职业技术学院,浙江,浙江省教育厅,体育,高职(专科),120.294010,30.253936
温州科技职业学院,浙江,浙江省教育厅,综合,高职(专科),120.632038,27.983269
浙江汽车职业技术学院,浙江,浙江省教育厅,工科,高职(专科), , 
浙江横店影视职业学院,浙江,浙江省教育厅,艺术,高职(专科), , 
同济大学浙江学院,浙江,浙江省教育厅,综合,本科, , 
上海财经大学浙江学院,浙江,浙江省教育厅,财经,本科,121.500850,31.306472
浙江农业商贸职业学院,浙江,浙江省教育厅,财经,高职(专科), , 
浙江外国语学院,浙江,浙江省教育厅,语言,本科/高职(专科),120.036972,30.221294
浙江特殊教育职业学院,浙江,浙江省教育厅,师范,高职(专科),120.014617,30.204623
浙江安防职业技术学院,浙江,浙江省教育厅,政法,高职(专科),120.152791,30.267446
浙江音乐学院,浙江,浙江省教育厅,艺术,本科,120.056346,30.154169
宁波诺丁汉大学,浙江,浙江省教育厅,综合,本科,121.563510,29.800020
温州肯恩大学,浙江,浙江省教育厅,综合,本科,120.652823,27.917383
浙江舟山群岛新区旅游与健康职业学院,浙江,浙江省教育厅,综合,高职(专科),121.913453,29.997584
浙江大学医学院,浙江,教育部,医药,本科,120.083837,30.296826
宁波幼儿师范高等专科学校,浙江,浙江省教育厅,师范,高职(专科),121.550357,29.874556
安徽大学,安徽,安徽省教育厅,综合,本科/高职(专科),117.255736,31.844926
中国科学技术大学,安徽,中国科学院,工科,本科,116.757576,39.588718
合肥工业大学,安徽,教育部,工科,本科,117.293767,31.846725
安徽工业大学,安徽,安徽省教育厅,工科,本科,117.297758,31.844644
安徽理工大学,安徽,安徽省教育厅,工科,本科, , 
安徽工程大学,安徽,安徽省教育厅,工科,本科, , 
安徽农业大学,安徽,安徽省教育厅,农业,本科/高职(专科),117.256914,31.861863
安徽医科大学,安徽,安徽省教育厅,医药,本科,117.262796,31.849347
蚌埠医学院,安徽,安徽省教育厅,医药,本科,117.433125,32.908000
皖南医学院,安徽,安徽省教育厅,医药,本科/高职(专科),118.374168,31.367083
安徽中医药大学,安徽,安徽省教育厅,医药,本科/高职(专科),117.260828,31.851792
安徽师范大学,安徽,安徽省教育厅,师范,本科,117.258058,31.863542
阜阳师范学院,安徽,安徽省教育厅,师范,本科,115.804738,32.893258
安庆师范大学,安徽,安徽省教育厅,师范,本科,117.049048,30.514564
淮北师范大学,安徽,安徽省教育厅,师范,本科,116.811015,33.983799
黄山学院,安徽,安徽省教育厅,师范,本科/高职(专科),118.291980,29.714090
皖西学院,安徽,安徽省教育厅,师范,本科/高职(专科),116.525078,31.765627
滁州学院,安徽,安徽省教育厅,师范,本科/高职(专科),118.302516,32.291814
安徽财经大学,安徽,安徽省教育厅,财经,本科, , 
宿州学院,安徽,安徽省教育厅,师范,本科/高职(专科),117.077336,33.633055
巢湖学院,安徽,安徽省教育厅,师范,本科,117.927780,31.648620
淮南师范学院,安徽,安徽省教育厅,师范,本科/高职(专科),116.960820,32.613196
铜陵学院,安徽,安徽省教育厅,财经,本科,117.827951,30.933505
安徽职业技术学院,安徽,安徽省教育厅,工科,高职(专科),117.385067,31.930366
安徽建筑大学,安徽,安徽省教育厅,工科,本科,117.228090,31.744560
安徽科技学院,安徽,安徽省教育厅,师范,本科,117.251656,31.877741
安徽三联学院,安徽,安徽省教育厅,工科,本科/高职(专科),117.199211,31.753038
淮北职业技术学院,安徽,安徽省教育厅,工科,高职(专科),116.895687,33.912849
合肥学院,安徽,安徽省教育厅,工科,本科/高职(专科),117.255203,31.752979
芜湖职业技术学院,安徽,安徽省教育厅,工科,高职(专科),118.369299,31.278035
蚌埠学院,安徽,安徽省教育厅,工科,本科/高职(专科),117.423095,32.889859
池州学院,安徽,安徽省教育厅,师范,本科/高职(专科),117.567732,30.643318
淮南联合大学,安徽,安徽省教育厅,综合,高职(专科),116.949927,32.614101
安徽医学高等专科学校,安徽,安徽省教育厅,医药,高职(专科),117.226558,31.787193
安徽中医药高等专科学校,安徽,安徽省教育厅,医药,高职(专科), , 
安徽商贸职业技术学院,安徽,安徽省教育厅,财经,高职(专科), , 
安徽水利水电职业技术学院,安徽,安徽省教育厅,工科,高职(专科),117.426688,31.825298
阜阳职业技术学院,安徽,安徽省教育厅,工科,高职(专科),115.764130,32.901728
安徽新华学院,安徽,安徽省教育厅,工科,本科/高职(专科),117.184390,31.826712
铜陵职业技术学院,安徽,安徽省教育厅,工科,高职(专科),117.862892,30.962779
民办万博科技职业学院,安徽,安徽省教育厅,工科,高职(专科),117.207214,31.863115
安徽警官职业学院,安徽,安徽省教育厅,政法,高职(专科),117.224317,31.876363
淮南职业技术学院,安徽,安徽省教育厅,工科,高职(专科),117.012842,32.621522
安徽工业经济职业技术学院,安徽,安徽省教育厅,财经,高职(专科),117.328706,31.817445
合肥通用职业技术学院,安徽,安徽省教育厅,工科,高职(专科),117.203877,31.857565
安徽文达信息工程学院,安徽,安徽省教育厅,工科,本科/高职(专科),117.019463,31.742430
安徽工贸职业技术学院,安徽,安徽省教育厅,工科,高职(专科), , 
宿州职业技术学院,安徽,安徽省教育厅,工科,高职(专科),116.973880,33.724776
六安职业技术学院,安徽,安徽省教育厅,工科,高职(专科),116.545009,31.831226
安徽电子信息职业技术学院,安徽,安徽省教育厅,工科,高职(专科), , 
民办合肥经济技术职业学院,安徽,安徽省教育厅,财经,高职(专科),117.909725,31.613142
安徽交通职业技术学院,安徽,安徽省教育厅,工科,高职(专科),117.296633,31.824387
安徽体育运动职业技术学院,安徽,安徽省教育厅,体育,高职(专科),117.350606,31.771084
亳州学院,安徽,安徽省教育厅,师范,本科,115.768788,33.802509
合肥职业技术学院,安徽,安徽省教育厅,工科,高职(专科),117.908969,31.612988
滁州职业技术学院,安徽,安徽省教育厅,工科,高职(专科),118.302415,32.245237
池州职业技术学院,安徽,安徽省教育厅,工科,高职(专科),117.021941,30.096729
宣城职业技术学院,安徽,安徽省教育厅,工科,高职(专科),118.729909,30.909060
安徽广播影视职业技术学院,安徽,安徽省教育厅,艺术,高职(专科),117.372319,31.929067
民办合肥滨湖职业技术学院,安徽,安徽省教育厅,工科,高职(专科),117.252346,31.723399
安徽外国语学院,安徽,安徽省教育厅,语言,本科/高职(专科),117.023826,31.738806
安徽电气工程职业技术学院,安徽,安徽省教育厅,工科,高职(专科),117.261274,31.842356
安徽冶金科技职业学院,安徽,安徽省教育厅,工科,高职(专科), , 
安徽城市管理职业学院,安徽,安徽省教育厅,财经,高职(专科),117.392407,31.928549
安徽机电职业技术学院,安徽,安徽省教育厅,工科,高职(专科), , 
安徽工商职业学院,安徽,安徽省教育厅,财经,高职(专科),117.260098,31.958958
安徽中澳科技职业学院,安徽,安徽省教育厅,工科,高职(专科),117.251503,31.877931
阜阳科技职业学院,安徽,安徽省教育厅,工科,高职(专科),115.788236,32.897259
亳州职业技术学院,安徽,安徽省教育厅,工科,高职(专科),115.768161,33.844381
安徽国防科技职业学院,安徽,安徽省教育厅,工科,高职(专科), , 
安庆职业技术学院,安徽,安徽省教育厅,工科,高职(专科),117.129681,30.539218
安徽艺术职业学院,安徽,安徽省教育厅,艺术,高职(专科),117.296235,31.848956
安徽财经大学商学院,安徽,安徽省教育厅,财经,本科, , 
安徽大学江淮学院,安徽,安徽省教育厅,综合,本科,117.248555,31.865330
安徽信息工程学院,安徽,安徽省教育厅,工科,本科,117.020708,31.743168
安徽工业大学工商学院,安徽,安徽省教育厅,工科,本科,117.263040,31.958290
安徽建筑大学城市建设学院,安徽,安徽省教育厅,工科,本科,117.596810,31.607092
安徽农业大学经济技术学院,安徽,安徽省教育厅,综合,本科,117.211973,31.770216
安徽师范大学皖江学院,安徽,安徽省教育厅,师范,本科,117.258058,31.863542
安徽医科大学临床医学院,安徽,安徽省教育厅,医药,本科,117.211806,31.792700
阜阳师范学院信息工程学院,安徽,安徽省教育厅,综合,本科,115.804951,32.891351
淮北师范大学信息学院,安徽,安徽省教育厅,师范,本科,116.811787,33.981348
马鞍山师范高等专科学校,安徽,安徽省教育厅,师范,高职(专科),118.495802,31.655528
安徽财贸职业学院,安徽,安徽省教育厅,财经,高职(专科),117.179461,31.753191
安徽国际商务职业学院,安徽,安徽省教育厅,财经,高职(专科),117.269505,31.987676
安徽公安职业学院,安徽,安徽省教育厅,政法,高职(专科),117.177103,31.828748
安徽林业职业技术学院,安徽,安徽省教育厅,林业,高职(专科),117.187358,31.841715
安徽审计职业学院,安徽,安徽省教育厅,财经,高职(专科),117.258015,31.723584
安徽新闻出版职业技术学院,安徽,安徽省教育厅,工科,高职(专科),117.243184,31.777646
安徽邮电职业技术学院,安徽,安徽省教育厅,工科,高职(专科),117.232847,31.848829
安徽工业职业技术学院,安徽,安徽省教育厅,工科,高职(专科),117.328706,31.817445
民办合肥财经职业学院,安徽,安徽省教育厅,财经,高职(专科),117.174386,31.756749
安庆医药高等专科学校,安徽,安徽省教育厅,医药,高职(专科),116.974889,30.612114
合肥师范学院,安徽,安徽省教育厅,师范,本科/高职(专科),117.274808,31.853878
安徽涉外经济职业学院,安徽,安徽省教育厅,财经,高职(专科),117.394557,31.933494
安徽绿海商务职业学院,安徽,安徽省教育厅,综合,高职(专科),117.198680,31.749208
合肥共达职业技术学院,安徽,安徽省教育厅,工科,高职(专科),117.314155,31.965150
蚌埠经济技术职业学院,安徽,安徽省教育厅,财经,高职(专科),117.369305,33.153995
民办安徽旅游职业学院,安徽,安徽省教育厅,财经,高职(专科),117.270908,31.755351
徽商职业学院,安徽,安徽省教育厅,工科,高职(专科),117.261597,31.836897
马鞍山职业技术学院,安徽,安徽省教育厅,工科,高职(专科),118.557980,31.661755
皖江工学院,安徽,安徽省教育厅,综合,本科, , 
安徽现代信息工程职业学院,安徽,安徽省教育厅,工科,高职(专科), , 
安徽矿业职业技术学院,安徽,安徽省教育厅,综合,高职(专科), , 
合肥信息技术职业学院,安徽,安徽省教育厅,综合,高职(专科),117.173270,31.759002
桐城师范高等专科学校,安徽,安徽省教育厅,师范,高职(专科),116.942096,31.049793
黄山职业技术学院,安徽,安徽省教育厅,综合,高职(专科),118.272363,29.690566
安徽汽车职业技术学院,安徽,安徽省教育厅,工科,高职(专科),117.272301,31.738999
皖西卫生职业学院,安徽,安徽省教育厅,医药,高职(专科),116.531723,31.767565
合肥幼儿师范高等专科学校,安徽,安徽省教育厅,师范,高职(专科),117.375923,31.920707
安徽长江职业学院,安徽,安徽省教育厅,工科,高职(专科),117.598580,31.605910
安徽扬子职业技术学院,安徽,安徽省教育厅,工科,高职(专科), , 
安徽黄梅戏艺术职业学院,安徽,安徽省教育厅,艺术,高职(专科),117.296235,31.848956
安徽粮食工程职业学院,安徽,安徽省教育厅,工科,高职(专科),117.396096,31.917095
安徽卫生健康职业学院,安徽,安徽省教育厅,综合,高职(专科),117.284922,31.861184
合肥科技职业学院,安徽,安徽省教育厅,工科,高职(专科),117.031018,31.746887
皖北卫生职业学院,安徽,安徽省教育厅,医药,高职(专科), , 
阜阳幼儿师范高等专科学校,安徽,安徽省教育厅,师范,高职(专科),115.779626,32.898925
安徽艺术学院,安徽,安徽省教育厅,艺术,本科,117.255330,31.812950
合肥工业大学(宣城校区),安徽,教育部,工科,本科,117.297654,31.846592
安徽经济管理干部学院,安徽,安徽省教育厅,财经,高职(专科),117.179585,31.828766
陆军炮兵防空兵学院,安徽,中央军委训练管理部,综合,本科,115.637337,23.068914
厦门大学,福建,教育部,综合,本科,118.095414,24.436803
华侨大学,福建,国务院侨务办公室,综合,本科/高职(专科),118.645264,24.934317
福州大学,福建,福建省教育厅,工科,本科/高职(专科),119.195050,26.057266
福建工程学院,福建,福建省教育厅,工科,本科/高职(专科),119.194223,26.038543
福建农林大学,福建,福建省教育厅,农业,本科/高职(专科),119.238292,26.082845
集美大学,福建,福建省教育厅,综合,本科/高职(专科),118.096359,24.569562
福建医科大学,福建,福建省教育厅,医药,本科,119.184255,26.068223
福建中医药大学,福建,福建省教育厅,医药,本科,119.182057,26.074657
福建师范大学,福建,福建省教育厅,师范,本科/高职(专科),119.310532,26.037661
闽江学院,福建,福建省教育厅,工科,本科/高职(专科),119.169113,26.064703
武夷学院,福建,福建省教育厅,综合,本科/高职(专科),118.004250,27.709625
宁德师范学院,福建,福建省教育厅,师范,本科/高职(专科),119.594204,26.656655
泉州师范学院,福建,福建省教育厅,师范,本科/高职(专科),118.670942,24.868273
闽南师范大学,福建,福建省教育厅,师范,本科,117.645363,24.507475
福建船政交通职业学院,福建,福建省教育厅,工科,高职(专科),119.311568,26.028301
厦门理工学院,福建,福建省教育厅,工科,本科/高职(专科),118.085730,24.623940
三明学院,福建,福建省教育厅,综合,本科/高职(专科),117.565445,26.193380
龙岩学院,福建,福建省教育厅,综合,本科/高职(专科),117.026978,25.030844
福建商学院,福建,福建省教育厅,财经,高职(专科),119.463842,26.240146
漳州职业技术学院,福建,福建省教育厅,工科,高职(专科),117.639847,24.522701
闽西职业技术学院,福建,福建省教育厅,工科,高职(专科),117.032547,25.064215
黎明职业大学,福建,福建省教育厅,综合,高职(专科),118.625656,24.880413
福建警察学院,福建,福建省教育厅,政法,本科,119.315760,26.026564
莆田学院,福建,福建省教育厅,综合,本科/高职(专科),119.012131,25.446740
福建华南女子职业学院,福建,福建省教育厅,综合,高职(专科),119.202931,26.024793
福州职业技术学院,福建,福建省教育厅,综合,高职(专科),119.158744,26.074581
仰恩大学,福建,福建省教育厅,综合,本科,118.613480,25.111475
福建林业职业技术学院,福建,福建省教育厅,林业,高职(专科), , 
福建信息职业技术学院,福建,福建省教育厅,工科,高职(专科),119.347706,25.995149
福建水利电力职业技术学院,福建,福建省教育厅,工科,高职(专科), , 
福建电力职业技术学院,福建,福建省教育厅,工科,高职(专科), , 
厦门海洋职业技术学院,福建,福建省教育厅,农业,高职(专科),118.105279,24.488084
福建农业职业技术学院,福建,福建省教育厅,农业,高职(专科),119.306734,25.828951
厦门医学院,福建,福建省教育厅,医药,本科,118.004782,24.608168
福建卫生职业技术学院,福建,福建省教育厅,医药,高职(专科),119.171447,26.142283
泉州医学高等专科学校,福建,福建省教育厅,医药,高职(专科),118.669812,24.930390
福州英华职业学院,福建,福建省教育厅,语言,高职(专科),119.391657,25.978067
厦门华厦学院,福建,福建省教育厅,综合,本科/高职(专科),118.083649,24.629894
闽南理工学院,福建,福建省教育厅,工科,本科/高职(专科),118.665741,24.716917
泉州纺织服装职业学院,福建,福建省教育厅,综合,高职(专科),118.671203,24.736999
泉州华光职业学院,福建,福建省教育厅,综合,高职(专科),118.701479,24.959435
泉州职业技术大学,福建,福建省教育厅,综合,高职(专科), , 
闽南科技学院,福建,福建省教育厅,工科,本科,118.480377,25.035480
福建农林大学东方学院,福建,福建省教育厅,工科,本科,119.651394,26.070913
厦门工学院,福建,福建省教育厅,工科,本科,118.070549,24.619431
阳光学院,福建,福建省教育厅,工科,本科,113.918213,30.935204
厦门大学嘉庚学院,福建,福建省教育厅,综合,本科,118.095414,24.436803
福州大学至诚学院,福建,福建省教育厅,综合,本科,119.272678,26.074247
集美大学诚毅学院,福建,福建省教育厅,综合,本科,118.094630,24.591669
福建师范大学协和学院,福建,福建省教育厅,综合,本科,119.203950,26.021382
福建警官职业学院,福建,福建省教育厅,政法,高职(专科),119.354661,26.078451
福州外语外贸学院,福建,福建省教育厅,财经,本科/高职(专科),119.500198,25.922324
福建江夏学院,福建,福建省教育厅,财经,本科/高职(专科),119.192703,26.065096
闽北职业技术学院,福建,福建省教育厅,综合,高职(专科),118.249855,26.580540
福州黎明职业技术学院,福建,福建省教育厅,工科,高职(专科),119.179486,25.906874
泉州信息工程学院,福建,福建省教育厅,工科,本科,118.584790,24.942056
厦门演艺职业学院,福建,福建省教育厅,艺术,高职(专科),118.247198,24.636161
厦门华天涉外职业技术学院,福建,福建省教育厅,综合,高职(专科),118.249971,24.604519
泉州经贸职业技术学院,福建,福建省教育厅,财经,高职(专科),118.039518,25.227037
福建对外经济贸易职业技术学院,福建,福建省教育厅,财经,高职(专科),119.505216,26.074197
湄洲湾职业技术学院,福建,福建省教育厅,综合,高职(专科),118.858063,25.266693
福州理工学院,福建,福建省教育厅,财经,高职(专科),119.244301,26.088773
福建生物工程职业技术学院,福建,福建省教育厅,工科,高职(专科),119.246806,26.080699
福建艺术职业学院,福建,福建省教育厅,艺术,高职(专科),119.149807,26.139148
福建幼儿师范高等专科学校,福建,福建省教育厅,师范,高职(专科),119.308658,26.030680
厦门城市职业学院,福建,福建省教育厅,综合,高职(专科),118.166109,24.461737
泉州工艺美术职业学院,福建,福建省教育厅,艺术,高职(专科),118.236405,25.502723
三明医学科技职业学院,福建,福建省教育厅,综合,高职(专科),117.640866,26.249730
宁德职业技术学院,福建,福建省教育厅,综合,高职(专科),119.656312,27.094433
福州软件职业技术学院,福建,福建省教育厅,工科,高职(专科),119.261373,26.105635
厦门兴才职业技术学院,福建,福建省教育厅,综合,高职(专科),118.037683,24.613757
福建农林大学金山学院,福建,福建省教育厅,农业,本科,119.651394,26.070913
厦门软件职业技术学院,福建,福建省教育厅,工科,高职(专科),118.074903,24.616715
福建体育职业技术学院,福建,福建省教育厅,体育,高职(专科),119.299649,26.112733
漳州城市职业学院,福建,福建省教育厅,师范,高职(专科),117.633063,24.524112
厦门南洋职业学院,福建,福建省教育厅,综合,高职(专科),118.253028,24.600904
厦门东海职业技术学院,福建,福建省教育厅,工科,高职(专科),118.174357,24.746248
漳州科技职业学院,福建,福建省教育厅,工科,高职(专科),117.535522,24.079580
漳州理工职业学院,福建,福建省教育厅,工科,高职(专科),117.744834,24.503806
武夷山职业学院,福建,福建省教育厅,综合,高职(专科),117.999457,27.719620
漳州卫生职业学院,福建,福建省教育厅,医药,高职(专科),117.633565,24.527780
泉州海洋职业学院,福建,福建省教育厅,工科,高职(专科),118.751311,24.761721
泉州轻工职业学院,福建,福建省教育厅,综合,高职(专科),118.548490,24.810344
厦门安防科技职业学院,福建,福建省教育厅,综合,高职(专科),118.260896,24.588440
泉州幼儿师范高等专科学校,福建,福建省教育厅,师范,高职(专科),118.658948,24.876413
闽江师范高等专科学校,福建,福建省教育厅,师范,高职(专科),119.401482,25.949938
泉州工程职业技术学院,福建,福建省教育厅,工科,高职(专科),118.445564,24.965254
福建技术师范学院,福建,福建省教育厅,师范,本科,119.295144,26.100779
福州墨尔本理工职业学院,福建,福建省教育厅,工科,高职(专科),119.161871,26.070535
福建教育学院,福建,福建省教育厅,师范,高职(专科),119.286033,26.087439
南昌大学,江西,江西省教育厅,综合,本科/高职(专科),115.802686,28.665028
华东交通大学,江西,江西省教育厅,工科,本科/高职(专科),115.867828,28.745691
东华理工大学,江西,江西省教育厅,工科,本科/高职(专科),116.354691,28.001877
南昌航空大学,江西,江西省教育厅,工科,本科/高职(专科),115.827603,28.649928
江西理工大学,江西,江西省教育厅,工科,本科/高职(专科),115.874584,28.741103
景德镇陶瓷大学,江西,江西省教育厅,工科,本科/高职(专科),117.316779,29.328868
江西农业大学,江西,江西省教育厅,农业,本科/高职(专科),115.834611,28.759635
江西中医药大学,江西,江西省教育厅,医药,本科/高职(专科),115.749904,28.674894
赣南医学院,江西,江西省教育厅,医药,本科/高职(专科),114.899414,25.773691
江西师范大学,江西,江西省教育厅,师范,本科/高职(专科),116.027020,28.681370
上饶师范学院,江西,江西省教育厅,师范,本科/高职(专科),117.970296,28.416874
宜春学院,江西,江西省教育厅,综合,本科/高职(专科),114.359586,27.793183
赣南师范大学,江西,江西省教育厅,师范,本科/高职(专科), , 
井冈山大学,江西,江西省教育厅,综合,本科/高职(专科),115.032043,27.111846
江西财经大学,江西,江西省教育厅,财经,本科/高职(专科),115.836831,28.729238
江西工业职业技术学院,江西,江西省教育厅,综合,高职(专科),116.023833,28.692673
江西科技学院,江西,江西省教育厅,综合,本科/高职(专科),116.018982,28.680871
江西医学高等专科学校,江西,江西省教育厅,医药,高职(专科), , 
景德镇学院,江西,江西省教育厅,综合,本科/高职(专科),117.182670,29.278428
萍乡学院,江西,江西省教育厅,综合,本科,113.879916,27.626459
江西科技师范大学,江西,江西省教育厅,师范,本科,115.835198,28.735875
南昌工程学院,江西,江西省教育厅,工科,本科/高职(专科),116.024488,28.687315
江西警察学院,江西,江西省教育厅,政法,本科/高职(专科),115.754023,28.664892
九江职业大学,江西,江西省教育厅,综合,高职(专科),115.962104,29.701619
新余学院,江西,江西省教育厅,综合,本科/高职(专科),114.995812,27.857762
九江职业技术学院,江西,江西省教育厅,综合,高职(专科),115.990905,29.679847
九江学院,江西,江西省教育厅,综合,本科/高职(专科),116.014909,29.682816
江西工程学院,江西,江西省教育厅,工科,高职(专科),116.030981,28.689509
南昌理工学院,江西,江西省教育厅,综合,本科/高职(专科),115.864765,28.784011
江西司法警官职业学院,江西,江西省教育厅,政法,高职(专科),115.844144,28.708398
江西陶瓷工艺美术职业技术学院,江西,江西省教育厅,艺术,高职(专科), , 
江西旅游商贸职业学院,江西,江西省教育厅,财经,高职(专科),115.788498,28.705356
江西电力职业技术学院,江西,江西省教育厅,工科,高职(专科),115.806132,28.719227
江西环境工程职业学院,江西,江西省教育厅,林业,高职(专科), , 
江西艺术职业学院,江西,江西省教育厅,艺术,高职(专科),115.859480,28.756286
鹰潭职业技术学院,江西,江西省教育厅,综合,高职(专科),117.051677,28.217201
江西应用科技学院,江西,江西省教育厅,综合,本科,115.703270,28.666020
江西信息应用职业技术学院,江西,江西省教育厅,工科,高职(专科),115.905503,28.585869
江西交通职业技术学院,江西,江西省教育厅,工科,高职(专科),115.859753,28.735919
江西财经职业学院,江西,江西省教育厅,财经,高职(专科),116.267163,28.360899
江西应用技术职业学院,江西,江西省教育厅,工科,高职(专科), , 
江西现代职业技术学院,江西,江西省教育厅,工科,高职(专科),115.999069,28.670884
江西工业工程职业技术学院,江西,江西省教育厅,工科,高职(专科), , 
江西机电职业技术学院,江西,江西省教育厅,工科,高职(专科),115.854239,28.735458
江西服装学院,江西,江西省教育厅,艺术,本科/高职(专科),115.951782,28.453840
江西科技职业学院,江西,江西省教育厅,综合,高职(专科),115.960113,28.478156
南昌职业大学,江西,江西省教育厅,综合,高职(专科), , 
南昌工学院,江西,江西省教育厅,工科,本科/高职(专科),115.760251,28.610412
江西外语外贸职业学院,江西,江西省教育厅,财经,高职(专科),116.031651,28.695242
江西工业贸易职业技术学院,江西,江西省教育厅,综合,高职(专科),115.787207,28.653875
宜春职业技术学院,江西,江西省教育厅,综合,高职(专科),114.369466,27.793432
江西应用工程职业学院,江西,江西省教育厅,工科,高职(专科),115.824006,28.762850
江西生物科技职业学院,江西,江西省教育厅,农业,高职(专科),115.937567,28.565023
江西建设职业技术学院,江西,江西省教育厅,工科,高职(专科),115.881455,28.582821
抚州职业技术学院,江西,江西省教育厅,工科,高职(专科),116.394806,27.954887
南昌大学科学技术学院,江西,江西省教育厅,综合,本科,115.944748,28.677943
南昌大学共青学院,江西,江西省教育厅,综合,本科,115.802686,28.665028
华东交通大学理工学院,江西,江西省教育厅,工科,本科,115.866203,28.745405
东华理工大学长江学院,江西,江西省教育厅,工科,本科,116.354019,27.988451
南昌航空大学科技学院,江西,江西省教育厅,工科,本科,115.943579,28.656011
江西理工大学应用科学学院,江西,江西省教育厅,工科,本科,115.874584,28.741103
景德镇陶瓷大学科技艺术学院,江西,江西省教育厅,工科,本科,117.249610,29.293315
江西农业大学南昌商学院,江西,江西省教育厅,综合,本科,115.852200,28.753305
江西中医药大学科技学院,江西,江西省教育厅,医药,本科,115.753568,28.679563
江西师范大学科学技术学院,江西,江西省教育厅,综合,本科,115.924164,28.675455
赣南师范大学科技学院,江西,江西省教育厅,师范,本科, , 
江西科技师范大学理工学院,江西,江西省教育厅,工科,本科,115.753025,28.611947
江西财经大学现代经济管理学院,江西,江西省教育厅,财经,本科,115.835505,28.733475
豫章师范学院,江西,江西省教育厅,师范,本科/高职(专科),115.893402,28.689137
江西中医药高等专科学校,江西,江西省教育厅,医药,高职(专科), , 
江西软件职业技术大学,江西,江西省教育厅,工科,高职(专科),115.971100,28.729115
江西经济管理职业学院,江西,江西省教育厅,财经,高职(专科),115.801233,28.639459
江西制造职业技术学院,江西,江西省教育厅,工科,高职(专科),116.002663,28.671990
江西工程职业学院,江西,江西省教育厅,综合,高职(专科),115.897816,28.649573
江西青年职业学院,江西,江西省教育厅,综合,高职(专科),115.828134,28.758597
上饶职业技术学院,江西,江西省教育厅,工科,高职(专科),117.902457,28.478480
江西航空职业技术学院,江西,江西省教育厅,工科,高职(专科),115.931309,28.492827
江西农业工程职业学院,江西,江西省教育厅,农业,高职(专科), , 
赣西科技职业学院,江西,江西省教育厅,综合,高职(专科),114.932442,27.832289
江西卫生职业学院,江西,江西省教育厅,医药,高职(专科),115.892249,28.573661
江西新能源科技职业学院,江西,江西省教育厅,工科,高职(专科),115.909228,28.675696
江西枫林涉外经贸职业学院,江西,江西省教育厅,财经,高职(专科),115.731621,28.723786
江西泰豪动漫职业学院,江西,江西省教育厅,艺术,高职(专科),115.973575,28.692116
江西冶金职业技术学院,江西,江西省教育厅,工科,高职(专科), , 
江西管理职业学院,江西,江西省教育厅,综合,高职(专科),115.822995,28.763584
江西传媒职业学院,江西,江西省教育厅,工科,高职(专科),115.956964,28.746302
江西工商职业技术学院,江西,江西省教育厅,工科,高职(专科),115.882823,28.587287
景德镇陶瓷职业技术学院,江西,江西省教育厅,工科,高职(专科),117.231222,29.363516
共青科技职业学院,江西,江西省教育厅,工科,高职(专科),115.807892,29.248739
南昌师范学院,江西,江西省教育厅,师范,高职(专科),115.803861,28.722631
赣州师范高等专科学校,江西,江西省教育厅,师范,高职(专科),114.895735,25.792692
江西水利职业学院,江西,江西省教育厅,工科,高职(专科),115.874854,28.751433
宜春幼儿师范高等专科学校,江西,江西省教育厅,师范,高职(专科),115.543536,28.546642
吉安职业技术学院,江西,江西省教育厅,综合,高职(专科),114.923765,27.094085
江西洪州职业学院,江西,江西省教育厅,综合,高职(专科),115.937864,28.562360
江西师范高等专科学校,江西,江西省教育厅,师范,高职(专科),115.776321,28.665172
南昌影视传播职业学院,江西,江西省教育厅,综合,高职(专科),115.954669,28.743961
赣南卫生健康职业学院,江西,江西省教育厅,医药,高职(专科), , 
萍乡卫生职业学院,江西,江西省教育厅,医药,高职(专科),113.854556,27.622768
江西婺源茶业职业学院,江西,江西省教育厅,综合,高职(专科),117.861798,29.248086
赣州职业技术学院,江西,江西省教育厅,综合,高职(专科),114.964758,25.846363
上饶幼儿师范高等专科学校,江西,江西省教育厅,师范,高职(专科),117.980261,28.421389
抚州幼儿师范高等专科学校,江西,江西省教育厅,师范,高职(专科),116.412022,27.947055
南昌教育学院,江西,江西省教育厅,师范,高职(专科),115.731523,28.723272
江西经济管理干部学院,江西,江西省教育厅,综合,高职(专科),115.799397,28.640391
陆军步兵学院,江西,中央军委训练管理部,综合,本科,115.637337,23.068914
山东大学,山东,教育部,综合,本科,117.059475,36.678325
中国海洋大学,山东,教育部,综合,本科,120.336266,36.061840
山东科技大学,山东,山东省教育厅,综合,本科/高职(专科),116.972698,36.678025
中国石油大学(华东),山东,教育部,工科,本科,108.648277,21.973679
青岛科技大学,山东,山东省教育厅,工科,本科/高职(专科),120.386711,36.150162
济南大学,山东,山东省教育厅,综合,本科/高职(专科),116.964624,36.614668
青岛理工大学,山东,山东省教育厅,工科,本科/高职(专科),120.205632,35.973277
山东建筑大学,山东,山东省教育厅,工科,本科/高职(专科),117.181744,36.686719
齐鲁工业大学,山东,山东省教育厅,工科,本科,118.057846,36.794289
山东理工大学,山东,山东省教育厅,工科,本科/高职(专科), , 
山东农业大学,山东,山东省教育厅,农业,本科/高职(专科),117.003038,36.606030
青岛农业大学,山东,山东省教育厅,农业,本科/高职(专科),120.395817,36.319084
潍坊医学院,山东,山东省教育厅,医药,本科/高职(专科),119.133590,36.705800
山东第一医科大学,山东,山东省教育厅,医药,本科/高职(专科), , 
滨州医学院,山东,山东省教育厅,医药,本科/高职(专科),118.011295,37.374135
山东中医药大学,山东,山东省教育厅,医药,本科/高职(专科),116.801628,36.560726
山东医学高等专科学校,山东,山东省教育厅,医药,高职(专科),116.990404,36.610658
济宁医学院,山东,山东省教育厅,医药,本科/高职(专科),116.580121,35.335051
菏泽医学专科学校,山东,山东省教育厅,医药,高职(专科),115.475539,35.271334
山东师范大学,山东,山东省教育厅,师范,本科/高职(专科),117.037469,36.650945
曲阜师范大学,山东,山东省教育厅,师范,本科/高职(专科),116.967086,35.595249
聊城大学,山东,山东省教育厅,综合,本科/高职(专科),116.011980,36.430933
德州学院,山东,山东省教育厅,综合,本科/高职(专科),116.331474,37.467262
滨州学院,山东,山东省教育厅,师范,本科/高职(专科),117.989190,37.385168
鲁东大学,山东,山东省教育厅,综合,本科/高职(专科),121.359238,37.523045
临沂大学,山东,山东省教育厅,综合,本科/高职(专科),118.289750,35.119762
泰山学院,山东,山东省教育厅,综合,本科/高职(专科),117.110119,36.193700
济宁学院,山东,山东省教育厅,师范,本科/高职(专科),116.953453,35.551693
菏泽学院,山东,山东省教育厅,综合,本科/高职(专科),115.466462,35.271317
山东财经大学,山东,山东省教育厅,财经,本科,117.070240,36.644150
山东体育学院,山东,山东省教育厅,体育,本科,117.195066,36.685745
山东艺术学院,山东,山东省教育厅,艺术,本科/高职(专科),117.045725,36.655686
齐鲁医药学院,山东,山东省教育厅,医药,本科/高职(专科),109.637230,34.895592
山东商业职业技术学院,山东,山东省教育厅,财经,高职(专科),117.270809,36.633903
青岛滨海学院,山东,山东省教育厅,综合,本科/高职(专科),120.165975,35.982276
枣庄学院,山东,山东省教育厅,综合,本科/高职(专科),117.537231,34.900274
山东工艺美术学院,山东,山东省教育厅,艺术,本科/高职(专科),117.041476,36.645523
青岛大学,山东,山东省教育厅,综合,本科/高职(专科),120.423644,36.067508
烟台大学,山东,山东省教育厅,综合,本科/高职(专科),121.459149,37.475408
潍坊学院,山东,山东省教育厅,综合,本科/高职(专科),119.180186,36.717414
山东警察学院,山东,山东省教育厅,政法,本科/高职(专科),117.052587,36.653645
山东交通学院,山东,山东省教育厅,工科,本科/高职(专科),116.793072,36.537932
山东工商学院,山东,山东省教育厅,工科,本科/高职(专科), , 
山东电力高等专科学校,山东,山东省教育厅,工科,高职(专科),117.025944,36.596122
日照职业技术学院,山东,山东省教育厅,综合,高职(专科),119.539614,35.461906
曲阜远东职业技术学院,山东,山东省教育厅,综合,高职(专科),117.113179,35.780834
青岛职业技术学院,山东,山东省教育厅,综合,高职(专科),120.161193,35.970578
威海职业学院,山东,山东省教育厅,综合,高职(专科),121.940261,37.433878
山东职业学院,山东,山东省教育厅,工科,高职(专科),117.327286,36.670010
山东劳动职业技术学院,山东,山东省教育厅,工科,高职(专科),116.972856,36.646500
莱芜职业技术学院,山东,山东省教育厅,综合,高职(专科),117.729535,36.239367
山东女子学院,山东,山东省教育厅,综合,本科/高职(专科),116.824208,36.556150
烟台南山学院,山东,山东省教育厅,工科,本科/高职(专科),120.439049,37.728962
济宁职业技术学院,山东,山东省教育厅,综合,高职(专科),116.591881,35.435297
潍坊职业学院,山东,山东省教育厅,综合,高职(专科),119.142296,36.714624
烟台职业学院,山东,山东省教育厅,综合,高职(专科),121.535019,37.435889
东营职业学院,山东,山东省教育厅,综合,高职(专科),118.623581,37.436002
聊城职业技术学院,山东,山东省教育厅,综合,高职(专科),115.996768,36.484490
滨州职业学院,山东,山东省教育厅,综合,高职(专科),117.998738,37.418529
山东科技职业学院,山东,山东省教育厅,工科,高职(专科),117.508618,36.665656
山东服装职业学院,山东,山东省教育厅,综合,高职(专科), , 
德州科技职业学院,山东,山东省教育厅,综合,高职(专科),116.614844,36.943267
潍坊科技学院,山东,山东省教育厅,综合,本科/高职(专科),118.775270,36.884567
山东力明科技职业学院,山东,山东省教育厅,综合,高职(专科),116.890798,36.583871
山东圣翰财贸职业学院,山东,山东省教育厅,综合,高职(专科),116.852320,36.568082
山东水利职业学院,山东,山东省教育厅,工科,高职(专科), , 
山东畜牧兽医职业学院,山东,山东省教育厅,农业,高职(专科), , 
青岛飞洋职业技术学院,山东,山东省教育厅,综合,高职(专科),120.325473,36.316254
山东英才学院,山东,山东省教育厅,综合,本科/高职(专科),117.321880,36.687809
东营科技职业学院,山东,山东省教育厅,综合,高职(专科),118.623581,37.436002
山东交通职业学院,山东,山东省教育厅,工科,高职(专科),117.327286,36.670010
淄博职业学院,山东,山东省教育厅,综合,高职(专科),117.935459,36.838158
山东外贸职业学院,山东,山东省教育厅,财经,高职(专科), , 
青岛酒店管理职业技术学院,山东,山东省教育厅,财经,高职(专科),120.489307,36.169157
山东信息职业技术学院,山东,山东省教育厅,工科,高职(专科), , 
青岛港湾职业技术学院,山东,山东省教育厅,工科,高职(专科),120.021565,35.814715
青岛恒星科技学院,山东,山东省教育厅,综合,本科/高职(专科),120.491060,36.174510
山东胜利职业学院,山东,山东省教育厅,工科,高职(专科), , 
山东经贸职业学院,山东,山东省教育厅,综合,高职(专科), , 
山东工业职业学院,山东,山东省教育厅,工科,高职(专科), , 
山东化工职业学院,山东,山东省教育厅,综合,高职(专科), , 
青岛黄海学院,山东,山东省教育厅,综合,本科/高职(专科),120.111275,35.925255
青岛求实职业技术学院,山东,山东省教育厅,综合,高职(专科),120.342559,36.231564
山东现代学院,山东,山东省教育厅,综合,本科,117.045052,36.721488
济南职业学院,山东,山东省教育厅,综合,高职(专科),117.263477,36.632435
山东协和学院,山东,山东省教育厅,医药,本科/高职(专科),117.209974,36.822131
烟台工程职业技术学院,山东,山东省教育厅,工科,高职(专科),121.226794,37.559603
山东工程职业技术大学,山东,山东省教育厅,工科,本科, , 
烟台大学文经学院,山东,山东省教育厅,综合,本科/高职(专科),121.476085,37.455284
青岛理工大学琴岛学院,山东,山东省教育厅,工科,本科/高职(专科),120.505401,36.307095
山东财经大学燕山学院,山东,山东省教育厅,综合,本科,117.504097,36.654513
中国石油大学胜利学院,山东,山东省教育厅,工科,本科/高职(专科),118.547279,37.466484
山东外国语职业技术大学,山东,山东省教育厅,语言,本科, , 
潍坊工商职业学院,山东,山东省教育厅,财经,高职(专科),119.495245,35.964160
德州职业技术学院,山东,山东省教育厅,工科,高职(专科),116.614063,36.942331
枣庄科技职业学院,山东,山东省教育厅,工科,高职(专科),117.189208,35.102964
山东科技大学泰山科技学院,山东,山东省教育厅,综合,本科/高职(专科),117.133838,36.200531
淄博师范高等专科学校,山东,山东省教育厅,师范,高职(专科),117.896166,36.661066
山东中医药高等专科学校,山东,山东省教育厅,医药,高职(专科), , 
济南工程职业技术学院,山东,山东省教育厅,工科,高职(专科),117.511442,36.667904
山东电子职业技术学院,山东,山东省教育厅,工科,高职(专科),117.519112,36.664516
山东华宇工学院,山东,山东省教育厅,工科,本科/高职(专科),117.020359,36.668530
山东旅游职业学院,山东,山东省教育厅,综合,高职(专科),117.538571,36.672747
山东铝业职业学院,山东,山东省教育厅,工科,高职(专科), , 
山东杏林科技职业学院,山东,山东省教育厅,综合,高职(专科),117.543695,36.677312
泰山职业技术学院,山东,山东省教育厅,综合,高职(专科),117.175958,36.222118
山东外事职业大学,山东,山东省教育厅,综合,本科, , 
山东药品食品职业学院,山东,山东省教育厅,医药,高职(专科), , 
青岛工学院,山东,山东省教育厅,综合,本科,120.020606,36.239546
青岛农业大学海都学院,山东,山东省教育厅,综合,本科/高职(专科),120.395817,36.319084
齐鲁理工学院,山东,山东省教育厅,综合,本科/高职(专科),117.543236,36.678890
山东财经大学东方学院,山东,山东省教育厅,综合,本科/高职(专科),117.070240,36.644150
潍坊理工学院,山东,山东省教育厅,综合,本科/高职(专科),119.161755,36.706774
聊城大学东昌学院,山东,山东省教育厅,综合,本科/高职(专科),116.038763,36.452831
济南大学泉城学院,山东,山东省教育厅,综合,本科,117.018541,36.629921
山东商务职业学院,山东,山东省教育厅,综合,高职(专科),117.065764,36.672340
山东轻工职业学院,山东,山东省教育厅,工科,高职(专科),117.327286,36.670010
山东城市建设职业学院,山东,山东省教育厅,综合,高职(专科),117.271598,36.640324
烟台汽车工程职业学院,山东,山东省教育厅,工科,高职(专科),121.246497,37.448402
山东司法警官职业学院,山东,山东省教育厅,政法,高职(专科),117.067817,36.643963
山东政法学院,山东,山东省教育厅,政法,本科/高职(专科),117.086089,36.664710
菏泽家政职业学院,山东,山东省教育厅,综合,高职(专科),116.097178,34.759763
山东传媒职业学院,山东,山东省教育厅,艺术,高职(专科),117.067129,36.653720
临沂职业学院,山东,山东省教育厅,工科,高职(专科),118.287792,35.010409
枣庄职业学院,山东,山东省教育厅,工科,高职(专科),117.299654,34.827930
山东理工职业学院,山东,山东省教育厅,综合,高职(专科),117.327286,36.670010
山东文化产业职业学院,山东,山东省教育厅,工科,高职(专科), , 
齐鲁师范学院,山东,山东省教育厅,师范,本科/高职(专科),117.496300,36.658379
山东青年政治学院,山东,山东省教育厅,综合,本科/高职(专科),117.239705,36.672204
青岛远洋船员职业学院,山东,山东省教育厅,工科,高职(专科),120.395228,36.077274
北京电影学院现代创意媒体学院,山东,山东省教育厅,艺术,本科,116.356356,39.970156
济南幼儿师范高等专科学校,山东,山东省教育厅,师范,高职(专科),116.800466,36.501580
济南护理职业学院,山东,山东省教育厅,医药,高职(专科),117.229053,36.640167
泰山护理职业学院,山东,山东省教育厅,医药,高职(专科),117.007019,36.183518
山东海事职业学院,山东,山东省教育厅,工科,高职(专科), , 
潍坊护理职业学院,山东,山东省教育厅,医药,高职(专科),119.126795,36.681486
潍坊工程职业学院,山东,山东省教育厅,工科,高职(专科),118.480839,36.630168
山东管理学院,山东,山东省教育厅,综合,本科/高职(专科),116.784964,36.530134
山东农业工程学院,山东,山东省教育厅,综合,本科/高职(专科),117.094778,36.694750
菏泽职业学院,山东,山东省教育厅,综合,高职(专科),115.477843,35.279194
山东艺术设计职业学院,山东,山东省教育厅,艺术,高职(专科),117.049829,36.710011
威海海洋职业学院,山东,山东省教育厅,农业,高职(专科),122.439253,37.063951
山东特殊教育职业学院,山东,山东省教育厅,综合,高职(专科),116.962002,36.617175
烟台黄金职业学院,山东,山东省教育厅,综合,高职(专科),120.244723,37.529290
日照航海工程职业学院,山东,山东省教育厅,综合,高职(专科),119.524582,35.469926
哈尔滨工业大学(威海),山东,工业和信息化部,工科,本科,126.632884,45.743721
山东大学威海分校,山东,教育部,综合,本科,122.069380,37.529259
聊城教育学院,山东,山东省教育厅,师范,高职(专科),115.967966,36.440201
海军潜艇学院,山东,中央军委训练管理部,综合,本科,110.104691,19.443855
海军航空大学,山东,中央军委训练管理部,综合,本科,110.104691,19.443855
华北水利水电大学,河南,河南省教育厅,工科,本科/高职(专科),113.674683,34.811325
郑州大学,河南,河南省教育厅,综合,本科/高职(专科),113.533269,34.820615
河南理工大学,河南,河南省教育厅,工科,本科/高职(专科),113.890398,34.792194
郑州轻工业大学,河南,河南省教育厅,工科,本科/高职(专科),113.651230,34.795126
河南工业大学,河南,河南省教育厅,工科,本科/高职(专科),113.549923,34.830976
河南科技大学,河南,河南省教育厅,综合,本科/高职(专科),113.637549,34.720551
中原工学院,河南,河南省教育厅,工科,本科/高职(专科),113.589593,34.746245
河南农业大学,河南,河南省教育厅,农业,本科/高职(专科),113.664109,34.784842
河南科技学院,河南,河南省教育厅,师范,本科/高职(专科),113.672872,34.683950
河南牧业经济学院,河南,河南省教育厅,农业,本科/高职(专科),113.640594,34.860650
河南中医药大学,河南,河南省教育厅,医药,本科/高职(专科),113.802230,34.784293
新乡医学院,河南,河南省教育厅,医药,本科,113.933662,35.289280
河南大学,河南,河南省教育厅,综合,本科/高职(专科),113.541989,34.792565
河南师范大学,河南,河南省教育厅,师范,本科/高职(专科),113.849865,34.780709
信阳师范学院,河南,河南省教育厅,师范,本科/高职(专科),114.124345,32.162588
周口师范学院,河南,河南省教育厅,师范,本科/高职(专科),114.682609,33.635594
安阳师范学院,河南,河南省教育厅,师范,本科/高职(专科),114.366493,36.058769
许昌学院,河南,河南省教育厅,工科,本科/高职(专科),113.871198,34.046757
南阳师范学院,河南,河南省教育厅,师范,本科/高职(专科),112.536167,32.993422
洛阳师范学院,河南,河南省教育厅,师范,本科/高职(专科),112.472910,34.656570
商丘师范学院,河南,河南省教育厅,师范,本科/高职(专科),115.631152,34.423498
河南财经政法大学,河南,河南省教育厅,财经,本科/高职(专科),113.820076,34.782041
郑州航空工业管理学院,河南,河南省教育厅,财经,本科/高职(专科),113.644458,34.717369
河南职业技术学院,河南,河南省教育厅,工科,高职(专科),113.789621,34.796521
漯河职业技术学院,河南,河南省教育厅,工科,高职(专科),114.009222,33.569057
三门峡职业技术学院,河南,河南省教育厅,工科,高职(专科),111.163644,34.785928
郑州铁路职业技术学院,河南,河南省教育厅,工科,高职(专科),113.887900,34.795304
黄淮学院,河南,河南省教育厅,师范,本科/高职(专科),114.007050,33.008121
平顶山学院,河南,河南省教育厅,师范,本科/高职(专科),113.208719,33.747473
郑州工程技术学院,河南,河南省教育厅,工科,高职(专科),113.649368,34.863612
开封大学,河南,河南省教育厅,工科,高职(专科),114.331624,34.827151
洛阳理工学院,河南,河南省教育厅,综合,本科/高职(专科),112.422346,34.612397
新乡学院,河南,河南省教育厅,工科,本科/高职(专科),113.942183,35.291233
信阳农林学院,河南,河南省教育厅,农业,本科/高职(专科),114.124905,32.161295
河南工学院,河南,河南省教育厅,工科,本科,113.697165,34.617917
安阳工学院,河南,河南省教育厅,工科,本科/高职(专科),114.351798,36.065146
河南工程学院,河南,河南省教育厅,工科,本科/高职(专科),113.696538,34.616148
焦作大学,河南,河南省教育厅,工科,高职(专科),113.280382,35.213434
河南财政金融学院,河南,河南省教育厅,财经,本科/高职(专科),113.861558,34.777421
南阳理工学院,河南,河南省教育厅,工科,本科/高职(专科),112.552877,32.967697
河南城建学院,河南,河南省教育厅,工科,本科/高职(专科), , 
濮阳职业技术学院,河南,河南省教育厅,工科,高职(专科),114.955977,35.770218
河南警察学院,河南,河南省教育厅,政法,本科/高职(专科),113.821293,34.790369
郑州电力高等专科学校,河南,河南省教育厅,工科,高职(专科),113.897857,34.798356
黄河科技学院,河南,河南省教育厅,工科,本科/高职(专科),113.617409,34.704536
焦作师范高等专科学校,河南,河南省教育厅,师范,高职(专科),113.273646,35.212627
黄河水利职业技术学院,河南,河南省教育厅,工科,高职(专科),114.342491,34.799469
许昌职业技术学院,河南,河南省教育厅,工科,高职(专科),113.883168,34.017072
河南工业和信息化职业学院,河南,河南省教育厅,综合,高职(专科), , 
河南水利与环境职业学院,河南,河南省教育厅,工科,高职(专科),113.678644,34.800718
铁道警察学院,河南,公安部,政法,高职(专科),113.651993,34.788284
商丘职业技术学院,河南,河南省教育厅,财经,高职(专科),115.656068,34.374016
郑州科技学院,河南,河南省教育厅,工科,本科/高职(专科),113.509411,34.708042
郑州工业应用技术学院,河南,河南省教育厅,工科,本科/高职(专科),113.757387,34.412526
平顶山工业职业技术学院,河南,河南省教育厅,工科,高职(专科),113.288603,33.710360
周口职业技术学院,河南,河南省教育厅,工科,高职(专科),114.727800,33.632200
济源职业技术学院,河南,河南省教育厅,工科,高职(专科),112.602085,35.076022
河南司法警官职业学院,河南,河南省教育厅,政法,高职(专科),113.814693,34.779717
鹤壁职业技术学院,河南,河南省教育厅,工科,高职(专科),114.283473,35.713855
河南工业职业技术学院,河南,河南省教育厅,工科,高职(专科),113.791245,34.796715
郑州澍青医学高等专科学校,河南,河南省教育厅,医药,高职(专科),113.534193,34.698093
郑州师范学院,河南,河南省教育厅,师范,本科/高职(专科),113.654690,34.862647
郑州财经学院,河南,河南省教育厅,财经,高职(专科),113.597740,34.862496
黄河交通学院,河南,河南省教育厅,工科,高职(专科),117.166725,34.276791
河南检察职业学院,河南,河南省教育厅,政法,高职(专科),113.707646,34.607285
商丘工学院,河南,河南省教育厅,工科,本科/高职(专科),115.688379,34.420832
河南大学民生学院,河南,河南省教育厅,财经,本科,113.541989,34.792565
河南师范大学新联学院,河南,河南省教育厅,师范,本科,113.850026,34.780188
信阳学院,河南,河南省教育厅,师范,本科/高职(专科),114.125159,32.166673
安阳学院,河南,河南省教育厅,师范,本科/高职(专科),114.394559,36.024818
新乡医学院三全学院,河南,河南省教育厅,医药,本科/高职(专科),113.680162,34.992731
河南科技学院新科学院,河南,河南省教育厅,工科,本科,113.672872,34.683950
郑州工商学院,河南,河南省教育厅,工科,本科/高职(专科),113.892763,34.794529
中原工学院信息商务学院,河南,河南省教育厅,财经,本科/高职(专科),113.719897,34.615414
河南质量工程职业学院,河南,河南省教育厅,工科,高职(专科), , 
郑州信息科技职业学院,河南,河南省教育厅,工科,高职(专科),113.802772,34.803508
漯河医学高等专科学校,河南,河南省教育厅,医药,高职(专科),114.095617,33.604041
南阳医学高等专科学校,河南,河南省教育厅,医药,高职(专科),112.497917,32.965600
商丘医学高等专科学校,河南,河南省教育厅,医药,高职(专科),115.618663,34.396946
郑州电子信息职业技术学院,河南,河南省教育厅,工科,高职(专科),114.031109,34.701103
信阳职业技术学院,河南,河南省教育厅,师范,高职(专科),114.131621,32.160869
嵩山少林武术职业学院,河南,河南省教育厅,体育,高职(专科),113.036339,34.432526
郑州工业安全职业学院,河南,河南省教育厅,工科,高职(专科),113.682983,34.531776
永城职业学院,河南,河南省教育厅,工科,高职(专科),116.457502,33.916299
河南经贸职业学院,河南,河南省教育厅,财经,高职(专科),113.798571,34.800796
河南交通职业技术学院,河南,河南省教育厅,工科,高职(专科),113.893707,34.788031
河南农业职业学院,河南,河南省教育厅,农业,高职(专科),114.015171,34.723967
郑州旅游职业学院,河南,河南省教育厅,财经,高职(专科),113.697408,34.724839
郑州职业技术学院,河南,河南省教育厅,工科,高职(专科),113.451201,34.763833
河南信息统计职业学院,河南,河南省教育厅,综合,高职(专科),113.686668,34.799158
河南林业职业学院,河南,河南省教育厅,林业,高职(专科), , 
河南工业贸易职业学院,河南,河南省教育厅,财经,高职(专科),113.688321,34.639150
商丘学院,河南,河南省教育厅,综合,本科/高职(专科),115.720275,34.406063
郑州商学院,河南,河南省教育厅,财经,本科/高职(专科),113.890209,34.791865
郑州电力职业技术学院,河南,河南省教育厅,工科,高职(专科),113.993215,34.721083
河南科技职业大学,河南,河南省教育厅,工科,高职(专科),113.713062,34.673657
河南建筑职业技术学院,河南,河南省教育厅,工科,高职(专科),113.523795,34.711557
漯河食品职业学院,河南,河南省教育厅,综合,高职(专科),113.989368,33.603906
郑州城市职业学院,河南,河南省教育厅,工科,高职(专科),113.339534,34.546319
安阳职业技术学院,河南,河南省教育厅,综合,高职(专科),114.379084,36.034424
新乡职业技术学院,河南,河南省教育厅,综合,高职(专科),114.043814,35.278980
驻马店职业技术学院,河南,河南省教育厅,工科,高职(专科),113.999691,33.003813
焦作工贸职业学院,河南,河南省教育厅,工科,未知,113.082611,35.160220
许昌陶瓷职业学院,河南,河南省教育厅,工科,高职(专科),113.497225,34.175354
郑州理工职业学院,河南,河南省教育厅,工科,高职(专科),113.706696,34.437385
郑州信息工程职业学院,河南,河南省教育厅,工科,未知,113.461268,34.744309
长垣烹饪职业技术学院,河南,河南省教育厅,工科,高职(专科),114.661136,35.183440
开封文化艺术职业学院,河南,河南省教育厅,艺术,高职(专科),114.337936,34.821980
河南应用技术职业学院,河南,河南省教育厅,工科,高职(专科),113.539270,34.772537
河南艺术职业学院,河南,河南省教育厅,艺术,未知,113.895040,34.783070
郑州升达经贸管理学院,河南,河南省教育厅,财经,本科,113.689000,34.597500
河南机电职业学院,河南,河南省教育厅,工科,高职(专科),113.716970,34.592230
河南护理职业学院,河南,河南省教育厅,医药,高职(专科), , 
许昌电气职业学院,河南,河南省教育厅,工科,高职(专科),113.856447,34.067325
信阳涉外职业技术学院,河南,河南省教育厅,工科,高职(专科),114.882752,31.674765
鹤壁汽车工程职业学院,河南,河南省教育厅,工科,高职(专科),114.311325,35.703405
南阳职业学院,河南,河南省教育厅,工科,高职(专科),111.490844,33.352419
郑州商贸旅游职业学院,河南,河南省教育厅,财经,高职(专科),113.502518,34.762910
河南推拿职业学院,河南,河南省教育厅,医药,高职(专科), , 
洛阳职业技术学院,河南,河南省教育厅,工科,高职(专科),112.290034,34.687361
郑州幼儿师范高等专科学校,河南,河南省教育厅,师范,高职(专科),113.671257,34.761560
安阳幼儿师范高等专科学校,河南,河南省教育厅,师范,高职(专科),114.386133,35.939324
郑州黄河护理职业学院,河南,河南省教育厅,医药,高职(专科),113.527065,34.787296
河南医学高等专科学校,河南,河南省教育厅,医药,高职(专科),113.704653,34.618956
郑州财税金融职业学院,河南,河南省教育厅,财经,高职(专科),113.717378,34.705318
南阳农业职业学院,河南,河南省教育厅,农业,高职(专科),112.517273,32.981365
洛阳科技职业学院,河南,河南省教育厅,综合,高职(专科),112.290034,34.687361
鹤壁能源化工职业学院,河南,河南省教育厅,工科,高职(专科),114.307616,35.705593
平顶山文化艺术职业学院,河南,河南省教育厅,艺术,高职(专科),113.072566,33.852963
濮阳医学高等专科学校,河南,河南省教育厅,医药,高职(专科),114.992026,35.811508
三门峡社会管理职业学院,河南,河南省教育厅,综合,高职(专科),111.013045,34.697207
河南轻工职业学院,河南,河南省教育厅,综合,高职(专科),113.508970,34.813627
河南测绘职业学院,河南,河南省教育厅,工科,高职(专科),113.859090,34.786289
信阳航空职业学院,河南,河南省教育厅,综合,高职(专科),114.091023,32.146983
郑州卫生健康职业学院,河南,河南省教育厅,医药,高职(专科),113.625368,34.746599
河南物流职业学院,河南,河南省教育厅,综合,高职(专科),113.753602,34.765515
河南地矿职业学院,河南,河南省教育厅,综合,高职(专科),113.849173,34.789085
郑州西亚斯学院,河南,河南省教育厅,综合,本科,113.766122,34.408771
第一拖拉机制造厂拖拉机学院,河南,河南省教育厅,工科,高职(专科), , 
河南教育学院,河南,河南省教育厅,师范,高职(专科),113.805627,34.803360
平顶山职业技术学院,河南,河南省教育厅,师范,高职(专科),113.288868,33.709476
战略支援部队信息工程大学,河南,中央军委训练管理部,综合,本科,118.723038,32.204399
武汉大学,湖北,教育部,综合,本科/高职(专科),114.365248,30.537860
华中科技大学,湖北,教育部,综合,本科/高职(专科),114.434479,30.511049
武汉科技大学,湖北,湖北省教育厅,工科,本科/高职(专科),114.370253,30.623761
长江大学,湖北,湖北省教育厅,综合,本科/高职(专科),112.212776,30.334261
武汉工程大学,湖北,湖北省教育厅,工科,本科/高职(专科),114.390726,30.503300
中国地质大学(武汉),湖北,教育部,工科,本科,114.400065,30.528835
武汉纺织大学,湖北,湖北省教育厅,工科,本科/高职(专科),114.398806,30.485637
武汉轻工大学,湖北,湖北省教育厅,工科,本科/高职(专科),114.237573,30.638471
武汉理工大学,湖北,教育部,工科,本科,114.352748,30.514768
湖北工业大学,湖北,湖北省教育厅,工科,本科/高职(专科),114.310157,30.483684
华中农业大学,湖北,教育部,农业,本科,114.356026,30.474377
湖北中医药大学,湖北,湖北省教育厅,医药,本科/高职(专科),114.313941,30.550891
华中师范大学,湖北,教育部,师范,本科/高职(专科),114.026222,22.537685
湖北大学,湖北,湖北省教育厅,综合,本科/高职(专科),114.331617,30.576571
湖北师范大学,湖北,湖北省教育厅,师范,本科/高职(专科),114.363390,30.516798
黄冈师范学院,湖北,湖北省教育厅,师范,本科/高职(专科),114.929830,30.446660
湖北民族大学,湖北,湖北省教育厅,民族,本科,114.393160,30.486680
汉江师范学院,湖北,湖北省教育厅,师范,本科,112.128693,32.033310
湖北文理学院,湖北,湖北省教育厅,综合,本科/高职(专科), , 
中南财经政法大学,湖北,教育部,财经,本科,112.982224,28.199482
武汉体育学院,湖北,湖北省教育厅,体育,本科,114.379550,30.523206
湖北美术学院,湖北,湖北省教育厅,艺术,本科,114.316684,30.549568
中南民族大学,湖北,国家民族事务委员会,民族,本科,114.392097,30.487009
湖北汽车工业学院,湖北,湖北省教育厅,工科,本科/高职(专科),114.246780,30.636959
湖北工程学院,湖北,湖北省教育厅,综合,本科,114.389849,30.503821
武汉职业技术学院,湖北,湖北省教育厅,工科,高职(专科),114.365837,30.524707
湖北理工学院,湖北,湖北省教育厅,工科,本科/高职(专科), , 
湖北科技学院,湖北,湖北省教育厅,综合,本科/高职(专科),114.404633,30.472013
湖北医药学院,湖北,湖北省教育厅,医药,本科/高职(专科),114.329117,30.488642
黄冈职业技术学院,湖北,湖北省教育厅,工科,高职(专科),114.997912,30.433327
长江职业学院,湖北,湖北省教育厅,工科,高职(专科),114.444130,30.464884
江汉大学,湖北,湖北省教育厅,综合,本科/高职(专科),114.159289,30.512140
荆州理工职业学院,湖北,湖北省教育厅,工科,高职(专科),112.252783,30.329576
三峡大学,湖北,湖北省教育厅,综合,本科/高职(专科),111.311539,30.714216
湖北警官学院,湖北,湖北省教育厅,政法,本科,114.203971,30.591863
湖北工业职业技术学院,湖北,湖北省教育厅,工科,高职(专科),114.424126,30.587449
鄂州职业大学,湖北,湖北省教育厅,工科,高职(专科),114.898055,30.371664
荆楚理工学院,湖北,湖北省教育厅,工科,本科/高职(专科),112.197723,31.043692
武汉音乐学院,湖北,湖北省教育厅,艺术,本科,114.295122,30.537619
湖北经济学院,湖北,湖北省教育厅,财经,本科/高职(专科),114.440744,30.423607
武汉商学院,湖北,湖北省教育厅,财经,高职(专科),114.087598,30.457353
武汉城市职业学院,湖北,湖北省教育厅,综合,高职(专科),114.321123,30.477654
武汉东湖学院,湖北,湖北省教育厅,工科,本科,114.317138,30.422026
汉口学院,湖北,湖北省教育厅,工科,本科,114.316345,30.416346
湖北中医药高等专科学校,湖北,湖北省教育厅,医药,高职(专科), , 
湖北职业技术学院,湖北,湖北省教育厅,工科,高职(专科),114.405205,30.470647
武汉船舶职业技术学院,湖北,湖北省教育厅,工科,高职(专科),114.235001,30.567780
武昌首义学院,湖北,湖北省教育厅,工科,本科/高职(专科),114.308223,30.487854
武昌理工学院,湖北,湖北省教育厅,工科,本科,114.366128,30.416336
恩施职业技术学院,湖北,湖北省教育厅,工科,高职(专科),109.495378,30.293941
襄阳职业技术学院,湖北,湖北省教育厅,工科,高职(专科),112.083477,32.005811
武汉生物工程学院,湖北,湖北省教育厅,工科,本科/高职(专科),114.525930,30.712450
武汉工贸职业学院,湖北,湖北省教育厅,工科,高职(专科),114.415747,30.529515
荆州职业技术学院,湖北,湖北省教育厅,工科,高职(专科),112.201529,30.331962
武汉工程职业技术学院,湖北,湖北省教育厅,工科,高职(专科),114.546900,30.712884
仙桃职业学院,湖北,湖北省教育厅,工科,高职(专科),113.425564,30.339216
湖北轻工职业技术学院,湖北,湖北省教育厅,工科,高职(专科),114.365908,30.524698
湖北交通职业技术学院,湖北,湖北省教育厅,工科,高职(专科),114.373091,30.508981
武汉航海职业技术学院,湖北,湖北省教育厅,工科,高职(专科),114.326930,30.576581
武汉铁路职业技术学院,湖北,湖北省教育厅,工科,高职(专科),114.409672,30.431409
武汉软件工程职业学院,湖北,湖北省教育厅,工科,高职(专科),114.427828,30.445266
湖北三峡职业技术学院,湖北,湖北省教育厅,工科,高职(专科), , 
随州职业技术学院,湖北,湖北省教育厅,工科,高职(专科),113.366333,31.669099
武汉电力职业技术学院,湖北,湖北省教育厅,工科,高职(专科),114.365908,30.524698
湖北水利水电职业技术学院,湖北,湖北省教育厅,工科,高职(专科),114.404341,30.371231
湖北城市建设职业技术学院,湖北,湖北省教育厅,工科,高职(专科),114.436848,30.402455
武汉警官职业学院,湖北,湖北省教育厅,政法,高职(专科),114.126305,30.624630
湖北生物科技职业学院,湖北,湖北省教育厅,工科,高职(专科),114.344331,30.461207
湖北开放职业学院,湖北,湖北省教育厅,工科,高职(专科),114.378306,30.499854
武汉科技职业学院,湖北,湖北省教育厅,工科,高职(专科),114.362047,30.601673
武汉外语外事职业学院,湖北,湖北省教育厅,工科,高职(专科),114.427543,30.586518
武汉信息传播职业技术学院,湖北,湖北省教育厅,工科,高职(专科),114.375131,30.403643
武昌职业学院,湖北,湖北省教育厅,工科,高职(专科),114.399317,30.372199
武汉商贸职业学院,湖北,湖北省教育厅,财经,高职(专科),114.461684,30.436402
武汉晴川学院,湖北,湖北省教育厅,综合,本科/高职(专科),114.539056,30.390919
湖北大学知行学院,湖北,湖北省教育厅,工科,本科/高职(专科),114.372924,30.689141
武汉科技大学城市学院,湖北,湖北省教育厅,工科,本科/高职(专科),114.426481,30.589059
三峡大学科技学院,湖北,湖北省教育厅,工科,本科/高职(专科),111.320236,30.723192
江汉大学文理学院,湖北,湖北省教育厅,财经,本科/高职(专科),114.156385,30.520785
湖北工业大学工程技术学院,湖北,湖北省教育厅,工科,本科/高职(专科),114.306304,30.479230
武汉工程大学邮电与信息工程学院,湖北,湖北省教育厅,工科,本科/高职(专科),114.391983,30.517332
武汉纺织大学外经贸学院,湖北,湖北省教育厅,财经,本科/高职(专科),114.372966,30.579136
武昌工学院,湖北,湖北省教育厅,工科,本科/高职(专科),114.283685,30.487092
武汉工商学院,湖北,湖北省教育厅,财经,本科,114.273448,30.458997
长江大学工程技术学院,湖北,湖北省教育厅,工科,本科/高职(专科),112.192635,30.335878
长江大学文理学院,湖北,湖北省教育厅,工科,本科/高职(专科),112.186638,30.349974
湖北商贸学院,湖北,湖北省教育厅,财经,本科/高职(专科),114.374984,30.496726
湖北汽车工业学院科技学院,湖北,湖北省教育厅,工科,本科/高职(专科),114.246780,30.636959
湖北医药学院药护学院,湖北,湖北省教育厅,医药,本科/高职(专科),114.329117,30.488642
湖北民族学院科技学院,湖北,湖北省教育厅,工科,本科/高职(专科), , 
湖北经济学院法商学院,湖北,湖北省教育厅,财经,本科/高职(专科),114.428067,30.417152
武汉体育学院体育科技学院,湖北,湖北省教育厅,体育,本科/高职(专科),114.433161,30.393472
湖北师范大学文理学院,湖北,湖北省教育厅,师范,本科/高职(专科),114.159940,30.520029
湖北文理学院理工学院,湖北,湖北省教育厅,工科,本科, , 
湖北工程学院新技术学院,湖北,湖北省教育厅,工科,本科/高职(专科),114.446520,30.440840
文华学院,湖北,湖北省教育厅,工科,本科/高职(专科),114.438828,30.505259
湖北艺术职业学院,湖北,湖北省教育厅,艺术,高职(专科),114.347201,30.527675
武汉交通职业学院,湖北,湖北省教育厅,工科,高职(专科),114.263556,30.427142
咸宁职业技术学院,湖北,湖北省教育厅,工科,高职(专科),114.314471,29.825598
长江工程职业技术学院,湖北,湖北省教育厅,工科,高职(专科),114.324135,30.357901
武汉学院,湖北,湖北省教育厅,财经,本科/高职(专科),114.296113,30.441656
武汉工程科技学院,湖北,湖北省教育厅,工科,本科/高职(专科),114.338798,30.347878
武汉华夏理工学院,湖北,湖北省教育厅,工科,本科/高职(专科),114.412000,30.466509
武汉传媒学院,湖北,湖北省教育厅,艺术,本科/高职(专科),114.419650,30.438825
江汉艺术职业学院,湖北,湖北省教育厅,艺术,高职(专科), , 
武汉工业职业技术学院,湖北,湖北省教育厅,工科,高职(专科),114.314107,30.440242
武汉民政职业学院,湖北,湖北省教育厅,政法,高职(专科),114.378837,30.508661
鄂东职业技术学院,湖北,湖北省教育厅,工科,高职(专科),114.926559,30.452457
湖北财税职业学院,湖北,湖北省教育厅,财经,高职(专科),114.298646,30.515290
黄冈科技职业学院,湖北,湖北省教育厅,工科,高职(专科),114.893115,30.451220
湖北国土资源职业学院,湖北,湖北省教育厅,工科,高职(专科),114.104837,30.360773
湖北生态工程职业技术学院,湖北,湖北省教育厅,林业,高职(专科),114.337338,30.345124
武汉设计工程学院,湖北,湖北省教育厅,农业,本科/高职(专科),114.409493,30.402723
三峡电力职业学院,湖北,湖北省教育厅,工科,高职(专科),111.307182,30.706228
湖北第二师范学院,湖北,湖北省教育厅,师范,本科/高职(专科),114.449152,30.480612
湖北科技职业学院,湖北,湖北省教育厅,工科,高职(专科),114.404238,30.471946
湖北青年职业学院,湖北,湖北省教育厅,工科,高职(专科),114.370213,30.507402
湖北工程职业学院,湖北,湖北省教育厅,工科,高职(专科),114.549661,30.716247
三峡旅游职业技术学院,湖北,湖北省教育厅,综合,高职(专科),111.430527,30.665199
天门职业学院,湖北,湖北省教育厅,工科,高职(专科),113.180088,30.668712
湖北体育职业学院,湖北,湖北省教育厅,体育,高职(专科),114.450463,30.489527
襄阳汽车职业技术学院,湖北,湖北省教育厅,工科,高职(专科),112.094050,31.952440
湖北幼儿师范高等专科学校,湖北,湖北省教育厅,师范,高职(专科),114.331121,30.537137
湖北铁道运输职业学院,湖北,湖北省教育厅,工科,高职(专科),114.348500,30.456536
长江艺术工程职业学院,湖北,湖北省教育厅,综合,高职(专科),104.533577,28.692989
荆门职业学院,湖北,湖北省教育厅,综合,高职(专科),112.089609,30.969517
武汉铁路桥梁职业学院,湖北,湖北省教育厅,综合,高职(专科),114.044129,30.324694
武汉光谷职业学院,湖北,湖北省教育厅,综合,高职(专科),114.378306,30.499854
荆州教育学院,湖北,湖北省教育厅,师范,高职(专科),112.294326,30.294996
海军工程大学,湖北,中央军委训练管理部,综合,本科,110.104691,19.443855
空军预警学院,湖北,中央军委训练管理部,综合,本科,110.346046,29.435053
湘潭大学,湖南,湖南省教育厅,综合,本科/高职(专科),112.863096,27.882942
吉首大学,湖南,湖南省教育厅,综合,本科/高职(专科),109.724860,28.288438
湖南大学,湖南,教育部,综合,本科,112.943119,28.177444
中南大学,湖南,教育部,综合,本科,112.926247,28.174528
湖南科技大学,湖南,湖南省教育厅,综合,本科,113.024775,28.121150
长沙理工大学,湖南,湖南省教育厅,工科,本科/高职(专科),112.977322,28.155963
湖南农业大学,湖南,湖南省教育厅,农业,本科/高职(专科),113.083205,28.180955
中南林业科技大学,湖南,湖南省教育厅,林业,本科/高职(专科),116.347000,40.007599
湖南中医药大学,湖南,湖南省教育厅,医药,本科/高职(专科),112.897097,28.132006
湖南师范大学,湖南,湖南省教育厅,师范,本科,112.955225,28.188740
湖南理工学院,湖南,湖南省教育厅,工科,本科, , 
湘南学院,湖南,湖南省教育厅,工科,本科/高职(专科),113.100426,25.785984
衡阳师范学院,湖南,湖南省教育厅,师范,本科,112.680838,26.875759
邵阳学院,湖南,湖南省教育厅,工科,本科,111.438222,27.195628
怀化学院,湖南,湖南省教育厅,综合,本科,110.019881,27.573628
湖南文理学院,湖南,湖南省教育厅,综合,本科/高职(专科),113.176739,28.249168
湖南科技学院,湖南,湖南省教育厅,综合,本科,112.919336,28.219268
湖南人文科技学院,湖南,湖南省教育厅,师范,本科/高职(专科), , 
湖南商学院,湖南,湖南省教育厅,财经,本科/高职(专科),112.919144,28.219524
南华大学,湖南,湖南省教育厅,综合,本科, , 
长沙医学院,湖南,湖南省教育厅,医药,本科/高职(专科),112.873991,28.296469
长沙民政职业技术学院,湖南,湖南省教育厅,工科,高职(专科),113.012870,28.140537
湖南工业职业技术学院,湖南,湖南省教育厅,工科,高职(专科),112.910780,28.138457
湖南信息职业技术学院,湖南,湖南省教育厅,工科,高职(专科),112.817257,28.341015
长沙学院,湖南,湖南省教育厅,工科,本科,113.026326,28.245037
湖南工程学院,湖南,湖南省教育厅,工科,本科/高职(专科),113.068810,28.275771
湖南城市学院,湖南,湖南省教育厅,综合,本科/高职(专科), , 
湖南工学院,湖南,湖南省教育厅,工科,本科/高职(专科),112.992380,28.157730
湖南财政经济学院,湖南,湖南省教育厅,财经,本科/高职(专科),112.924915,28.204626
湖南警察学院,湖南,湖南省教育厅,政法,本科/高职(专科),113.130024,28.223814
湖南工业大学,湖南,湖南省教育厅,工科,本科/高职(专科), , 
湖南女子学院,湖南,湖南省教育厅,语言,本科/高职(专科),113.008140,28.115694
湖南第一师范学院,湖南,湖南省教育厅,师范,本科/高职(专科),112.867237,28.196405
长沙航空职业技术学院,湖南,中央军委装备发展部,工科,高职(专科),113.044559,28.141398
湖南医药学院,湖南,湖南省教育厅,医药,高职(专科),113.045757,28.147203
湖南大众传媒职业技术学院,湖南,湖南省教育厅,综合,高职(专科),113.077338,28.257598
永州职业技术学院,湖南,湖南省教育厅,综合,高职(专科),111.629836,26.269923
湖南铁道职业技术学院,湖南,湖南省教育厅,工科,高职(专科), , 
湖南涉外经济学院,湖南,湖南省教育厅,综合,本科/高职(专科),112.876022,28.201808
湖南科技职业学院,湖南,湖南省教育厅,综合,高职(专科),113.025348,28.120728
湖南生物机电职业技术学院,湖南,湖南省教育厅,综合,高职(专科),113.071050,28.200667
湖南交通职业技术学院,湖南,湖南省教育厅,工科,高职(专科),113.186457,28.141610
湖南商务职业技术学院,湖南,湖南省教育厅,财经,高职(专科),112.897542,28.234517
湖南体育职业学院,湖南,湖南省教育厅,体育,高职(专科),113.040951,28.149359
湖南工程职业技术学院,湖南,湖南省教育厅,工科,高职(专科),113.068857,28.275736
保险职业学院,湖南,湖南省教育厅,财经,高职(专科),112.997192,28.094749
湖南外贸职业学院,湖南,湖南省教育厅,财经,高职(专科),112.914592,28.353413
湖南网络工程职业学院,湖南,湖南省教育厅,综合,高职(专科),112.989406,28.134430
湘潭大学兴湘学院,湖南,湖南省教育厅,综合,本科,112.861468,27.878388
邵阳职业技术学院,湖南,湖南省教育厅,综合,高职(专科),111.429701,27.191517
湖南司法警官职业学院,湖南,湖南省教育厅,政法,高职(专科),113.095206,28.208368
长沙商贸旅游职业技术学院,湖南,湖南省教育厅,财经,高职(专科),113.040296,28.070772
湖南工业大学科技学院,湖南,湖南省教育厅,工科,本科, , 
湖南科技大学潇湘学院,湖南,湖南省教育厅,综合,本科,113.024775,28.121150
南华大学船山学院,湖南,湖南省教育厅,工科,本科, , 
湖南商学院北津学院,湖南,湖南省教育厅,财经,本科,112.877845,28.305912
湖南师范大学树达学院,湖南,湖南省教育厅,师范,本科,112.923150,28.167334
湖南农业大学东方科技学院,湖南,湖南省教育厅,农业,本科,113.082721,28.183721
中南林业科技大学涉外学院,湖南,湖南省教育厅,综合,本科,112.992653,28.132397
湖南文理学院芙蓉学院,湖南,湖南省教育厅,综合,本科,113.014381,28.083424
湖南理工学院南湖学院,湖南,湖南省教育厅,工科,本科, , 
衡阳师范学院南岳学院,湖南,湖南省教育厅,师范,本科,112.627885,26.863687
湖南工程学院应用技术学院,湖南,湖南省教育厅,工科,本科,113.068810,28.275771
湖南中医药大学湘杏学院,湖南,湖南省教育厅,医药,本科,112.996810,28.163512
吉首大学张家界学院,湖南,湖南省教育厅,综合,本科,110.453508,29.151796
湖南环境生物职业技术学院,湖南,湖南省教育厅,农业,高职(专科), , 
湖南邮电职业技术学院,湖南,湖南省教育厅,工科,高职(专科),112.976675,28.160123
湘潭医卫职业技术学院,湖南,湖南省教育厅,综合,高职(专科),112.914659,27.863523
郴州职业技术学院,湖南,湖南省教育厅,综合,高职(专科),113.093564,25.781244
娄底职业技术学院,湖南,湖南省教育厅,综合,高职(专科),112.021718,27.741309
张家界航空工业职业技术学院,湖南,湖南省教育厅,工科,高职(专科),110.454038,29.147755
长沙环境保护职业技术学院,湖南,湖南省教育厅,工科,高职(专科),113.023334,28.128655
湖南艺术职业学院,湖南,湖南省教育厅,艺术,高职(专科),112.937008,28.166301
湖南机电职业技术学院,湖南,湖南省教育厅,工科,高职(专科),113.058373,28.262396
怀化职业技术学院,湖南,湖南省教育厅,综合,高职(专科),109.934105,27.532113
岳阳职业技术学院,湖南,湖南省教育厅,综合,高职(专科),113.145681,29.291480
常德职业技术学院,湖南,湖南省教育厅,综合,高职(专科),111.641960,29.035689
长沙南方职业学院,湖南,湖南省教育厅,综合,高职(专科),112.906999,28.149881
潇湘职业学院,湖南,湖南省教育厅,综合,高职(专科),111.985321,27.762402
湖南化工职业技术学院,湖南,湖南省教育厅,工科,高职(专科), , 
湖南城建职业技术学院,湖南,湖南省教育厅,工科,高职(专科),112.975711,28.163135
湖南石油化工职业技术学院,湖南,湖南省教育厅,工科,高职(专科), , 
长沙理工大学城南学院,湖南,湖南省教育厅,工科,本科,112.976384,28.152187
邵阳医学高等专科学校,湖南,湖南省教育厅,医药,高职(专科),111.433751,27.195304
湖南民族职业学院,湖南,湖南省教育厅,民族,高职(专科), , 
湘西民族职业技术学院,湖南,湖南省教育厅,民族,高职(专科),109.679491,28.225051
长沙师范学院,湖南,湖南省教育厅,师范,高职(专科),113.082709,28.255220
湖南财经工业职业技术学院,湖南,湖南省教育厅,财经,高职(专科),112.983810,28.112444
益阳职业技术学院,湖南,湖南省教育厅,综合,高职(专科),112.250059,28.682591
湖南应用技术学院,湖南,湖南省教育厅,综合,高职(专科),112.983810,28.112444
湖南信息学院,湖南,湖南省教育厅,工科,高职(专科),113.087336,28.320123
湖南工艺美术职业学院,湖南,湖南省教育厅,艺术,高职(专科), , 
湖南九嶷职业技术学院,湖南,湖南省教育厅,综合,高职(专科), , 
湖南理工职业技术学院,湖南,湖南省教育厅,工科,高职(专科), , 
湖南交通工程学院,湖南,湖南省教育厅,财经,高职(专科),112.983810,28.112444
湖南软件职业学院,湖南,湖南省教育厅,工科,高职(专科), , 
湖南汽车工程职业学院,湖南,湖南省教育厅,综合,高职(专科),112.983810,28.112444
长沙电力职业技术学院,湖南,湖南省教育厅,工科,高职(专科),113.109375,28.219632
湖南水利水电职业技术学院,湖南,湖南省教育厅,工科,高职(专科),113.106037,28.214094
湖南现代物流职业技术学院,湖南,湖南省教育厅,综合,高职(专科),113.094634,28.213699
湖南高速铁路职业技术学院,湖南,湖南省教育厅,工科,高职(专科), , 
湖南铁路科技职业技术学院,湖南,湖南省教育厅,工科,高职(专科), , 
湖南安全技术职业学院,湖南,湖南省教育厅,工科,高职(专科),113.058059,28.269673
湖南电气职业技术学院,湖南,湖南省教育厅,工科,高职(专科), , 
湖南外国语职业学院,湖南,湖南省教育厅,语言,高职(专科),113.012719,28.102477
益阳医学高等专科学校,湖南,湖南省教育厅,医药,高职(专科),112.394336,28.537106
湖南都市职业学院,湖南,湖南省教育厅,工科,高职(专科),113.182865,28.223150
湖南电子科技职业学院,湖南,湖南省教育厅,工科,高职(专科),112.822232,28.204010
湖南国防工业职业技术学院,湖南,湖南省教育厅,工科,高职(专科),112.983810,28.112444
湖南高尔夫旅游职业学院,湖南,湖南省教育厅,财经,高职(专科), , 
湖南工商职业学院,湖南,湖南省教育厅,工科,高职(专科), , 
湖南三一工业职业技术学院,湖南,湖南省教育厅,工科,高职(专科),113.139124,28.185573
长沙卫生职业学院,湖南,湖南省教育厅,医药,高职(专科),113.083963,28.259012
湖南食品药品职业学院,湖南,湖南省教育厅,医药,高职(专科),113.045521,28.147970
湖南有色金属职业技术学院,湖南,湖南省教育厅,工科,高职(专科), , 
湖南吉利汽车职业技术学院,湖南,湖南省教育厅,工科,高职(专科), , 
湖南幼儿师范高等专科学校,湖南,湖南省教育厅,师范,高职(专科), , 
湘南幼儿师范高等专科学校,湖南,湖南省教育厅,师范,高职(专科),120.208916,30.087763
湖南劳动人事职业学院,湖南,湖南省教育厅,综合,高职(专科),113.169043,28.251406
怀化师范高等专科学校,湖南,湖南省教育厅,师范,高职(专科), , 
湘中幼儿师范高等专科学校,湖南,湖南省教育厅,师范,高职(专科),111.269394,28.267292
国防科技大学,湖南,中央军委训练管理部,综合,本科,114.513069,38.017483
中山大学,广东,教育部,综合,本科,113.391838,22.530892
暨南大学,广东,国务院侨务办公室,综合,本科,113.347717,23.128052
汕头大学,广东,广东省教育厅,综合,本科,116.631809,23.412536
华南理工大学,广东,教育部,工科,本科,113.367149,23.110704
华南农业大学,广东,广东省教育厅,农业,本科,113.360382,23.167627
广东海洋大学,广东,广东省教育厅,农业,本科/高职(专科), , 
广州医科大学,广东,广东省教育厅,医药,本科/高职(专科),113.256112,23.134057
广东医科大学,广东,广东省教育厅,医药,本科,113.256112,23.134057
广州中医药大学,广东,广东省教育厅,医药,本科/高职(专科),113.402720,23.056325
广东药科大学,广东,广东省教育厅,医药,本科,113.408934,23.055111
华南师范大学,广东,广东省教育厅,师范,本科/高职(专科),113.518066,23.354553
韶关学院,广东,广东省教育厅,综合,本科/高职(专科),113.669633,24.773840
惠州学院,广东,广东省教育厅,综合,本科/高职(专科),114.421664,23.038614
韩山师范学院,广东,广东省教育厅,师范,本科/高职(专科),116.658470,23.661964
岭南师范学院,广东,广东省教育厅,师范,本科/高职(专科),110.349556,21.269520
肇庆学院,广东,广东省教育厅,综合,本科/高职(专科),112.495301,23.107272
嘉应学院,广东,广东省教育厅,综合,本科/高职(专科),116.127319,24.326977
广州体育学院,广东,广东省教育厅,体育,本科,113.319108,23.143489
广州美术学院,广东,广东省教育厅,艺术,本科,113.383312,23.039804
星海音乐学院,广东,广东省教育厅,艺术,本科,113.379150,23.058622
广东技术师范大学,广东,广东省教育厅,师范,本科/高职(专科),113.337005,23.146076
深圳大学,广东,广东省教育厅,综合,本科,113.935097,22.527939
广东财经大学,广东,广东省教育厅,财经,本科,113.354389,23.089897
广东白云学院,广东,广东省教育厅,工科,本科/高职(专科),113.208619,23.271294
顺德职业技术学院,广东,广东省教育厅,综合,高职(专科),113.324363,22.809745
广东轻工职业技术学院,广东,广东省教育厅,工科,高职(专科),113.300713,23.090846
广东交通职业技术学院,广东,广东省教育厅,工科,高职(专科),113.203260,23.366979
广东水利电力职业技术学院,广东,广东省教育厅,工科,高职(专科),113.614397,23.562279
潮汕职业技术学院,广东,广东省教育厅,综合,高职(专科),116.141876,23.292112
广州大学,广东,广东省教育厅,综合,本科/高职(专科),113.370555,23.039919
广州航海学院,广东,广东省教育厅,工科,本科/高职(专科),113.478964,23.101616
广东警官学院,广东,广东省教育厅,政法,本科,113.306521,23.254332
深圳职业技术学院,广东,广东省教育厅,综合,高职(专科),114.215567,22.684234
广东南华工商职业学院,广东,广东省教育厅,财经,高职(专科),113.181218,23.440171
私立华联学院,广东,广东省教育厅,综合,高职(专科),113.404030,23.154264
仲恺农业工程学院,广东,广东省教育厅,农业,本科,113.280441,23.107883
五邑大学,广东,广东省教育厅,综合,本科,113.084587,22.590401
广东金融学院,广东,广东省教育厅,财经,本科,113.380731,23.202540
电子科技大学中山学院,广东,广东省教育厅,综合,本科,113.392738,22.529924
广东石油化工学院,广东,广东省教育厅,综合,本科/高职(专科), , 
东莞理工学院,广东,广东省教育厅,工科,本科,113.877857,22.900500
广东工业大学,广东,广东省教育厅,工科,本科/高职(专科),113.393116,23.039404
广东外语外贸大学,广东,广东省教育厅,语言,本科,113.292429,23.200438
佛山科学技术学院,广东,广东省教育厅,综合,本科/高职(专科),113.100107,23.024339
广州民航职业技术学院,广东,中国民用航空局,工科,高职(专科),113.257284,23.166828
广州番禺职业技术学院,广东,广东省教育厅,综合,高职(专科),113.306785,22.902760
广东培正学院,广东,广东省教育厅,财经,本科/高职(专科),113.090848,23.410466
广东松山职业技术学院,广东,广东省教育厅,工科,高职(专科),113.459250,23.244380
南方医科大学,广东,广东省教育厅,医药,本科/高职(专科),114.360916,23.027832
广东农工商职业技术学院,广东,广东省教育厅,综合,高职(专科),113.611860,23.282311
广东新安职业技术学院,广东,广东省教育厅,综合,高职(专科),113.361700,23.145700
佛山职业技术学院,广东,广东省教育厅,综合,高职(专科),112.976579,23.241818
广东科学技术职业学院,广东,广东省教育厅,工科,高职(专科),113.363424,23.145124
广东食品药品职业学院,广东,广东省教育厅,工科,高职(专科),113.376155,23.203203
广东东软学院,广东,广东省教育厅,工科,高职(专科),113.266530,23.132191
广州康大职业技术学院,广东,广东省教育厅,工科,高职(专科),113.565699,23.308669
珠海艺术职业学院,广东,广东省教育厅,艺术,高职(专科),113.355894,22.136059
广东行政职业学院,广东,广东省教育厅,综合,高职(专科),113.186162,23.399837
广东体育职业技术学院,广东,广东省教育厅,体育,高职(专科),113.357019,23.165902
华南理工大学广州学院,广东,广东省教育厅,工科,本科,113.172819,23.434030
广州大学华软软件学院,广东,广东省教育厅,工科,本科/高职(专科),113.495460,23.451063
中山大学南方学院,广东,广东省教育厅,综合,本科, , 
广东外语外贸大学南国商学院,广东,广东省教育厅,财经,本科,113.384062,23.337938
广东财经大学华商学院,广东,广东省教育厅,财经,本科/高职(专科),113.780258,23.257580
广东海洋大学寸金学院,广东,广东省教育厅,综合,本科/高职(专科), , 
华南农业大学珠江学院,广东,广东省教育厅,农业,本科,113.579018,23.513548
广东技术师范学院天河学院,广东,广东省教育厅,工科,本科/高职(专科),113.370675,23.131698
广东职业技术学院,广东,广东省教育厅,工科,高职(专科),113.419982,23.168520
广东建设职业技术学院,广东,广东省教育厅,工科,高职(专科),113.247892,23.268478
广东女子职业技术学院,广东,广东省教育厅,综合,高职(专科),113.311544,23.099512
广东机电职业技术学院,广东,广东省教育厅,工科,高职(专科),113.336381,23.195694
广东岭南职业技术学院,广东,广东省教育厅,综合,高职(专科),113.419982,23.168520
汕尾职业技术学院,广东,广东省教育厅,综合,高职(专科),115.368123,22.794306
罗定职业技术学院,广东,广东省教育厅,综合,高职(专科),111.559516,22.769596
阳江职业技术学院,广东,广东省教育厅,综合,高职(专科),111.987097,21.842533
河源职业技术学院,广东,广东省教育厅,综合,高职(专科),114.739937,23.749956
广东邮电职业技术学院,广东,广东省教育厅,工科,高职(专科),113.364395,23.134634
汕头职业技术学院,广东,广东省教育厅,综合,高职(专科),116.760157,23.292868
揭阳职业技术学院,广东,广东省教育厅,综合,高职(专科),116.315904,23.477249
深圳信息职业技术学院,广东,广东省教育厅,综合,高职(专科),114.215568,22.684234
清远职业技术学院,广东,广东省教育厅,综合,高职(专科),113.079615,23.719756
广东工贸职业技术学院,广东,广东省教育厅,工科,高职(专科),113.320363,23.173558
广东司法警官职业学院,广东,广东省教育厅,政法,高职(专科),113.361266,23.194440
广东亚视演艺职业学院,广东,广东省教育厅,艺术,高职(专科), , 
广东省外语艺术职业学院,广东,广东省教育厅,综合,高职(专科),113.339603,23.148836
北京师范大学珠海分校,广东,广东省教育厅,综合,本科,116.364489,39.964655
广东工业大学华立学院,广东,广东省教育厅,工科,本科,113.865990,23.242380
广州大学松田学院,广东,广东省教育厅,综合,本科,113.726044,23.277077
广州商学院,广东,广东省教育厅,综合,本科,113.568817,23.303581
北京理工大学珠海学院,广东,广东省教育厅,综合,本科,116.322262,39.957401
吉林大学珠海学院,广东,广东省教育厅,综合,本科,125.280441,43.827437
广东文艺职业学院,广东,广东省教育厅,艺术,高职(专科),113.345909,22.971287
广州体育职业技术学院,广东,广东省教育厅,体育,高职(专科),113.357019,23.165902
广州工程技术职业学院,广东,广东省教育厅,综合,高职(专科),113.286931,23.123768
中山火炬职业技术学院,广东,广东省教育厅,工科,高职(专科),113.461967,22.550951
江门职业技术学院,广东,广东省教育厅,综合,高职(专科),113.104450,22.627620
茂名职业技术学院,广东,广东省教育厅,综合,高职(专科),110.933072,21.674505
珠海城市职业技术学院,广东,广东省教育厅,综合,高职(专科),113.359167,22.132379
广州工商学院,广东,广东省教育厅,综合,高职(专科),113.181218,23.440171
广州涉外经济职业技术学院,广东,广东省教育厅,综合,高职(专科),113.355613,23.257194
广州南洋理工职业学院,广东,广东省教育厅,综合,高职(专科),113.617290,23.582297
广州科技职业技术大学,广东,广东省教育厅,综合,高职(专科),113.462919,23.404663
惠州经济职业技术学院,广东,广东省教育厅,财经,高职(专科),114.473418,23.076534
广东科技学院,广东,广东省教育厅,综合,本科/高职(专科),113.300016,23.140084
广东理工学院,广东,广东省教育厅,工科,本科,113.172819,23.434030
广东工商职业技术大学,广东,广东省教育厅,综合,高职(专科),113.331348,23.157663
肇庆医学高等专科学校,广东,广东省教育厅,医药,高职(专科),112.585516,23.202822
东莞理工学院城市学院,广东,广东省教育厅,工科,本科/高职(专科),113.840776,22.978709
中山大学新华学院,广东,广东省教育厅,综合,本科, , 
广州现代信息工程职业技术学院,广东,广东省教育厅,工科,高职(专科),113.380539,23.213832
广东理工职业学院,广东,广东省教育厅,工科,高职(专科),113.272924,23.141989
广州华南商贸职业学院,广东,广东省教育厅,财经,高职(专科),113.353760,23.180577
广州华立科技职业学院,广东,广东省教育厅,工科,高职(专科),113.865990,23.242380
广州城市职业学院,广东,广东省教育厅,综合,高职(专科),113.274150,23.157701
广东工程职业技术学院,广东,广东省教育厅,工科,高职(专科),113.381267,23.213750
广州铁路职业技术学院,广东,广东省教育厅,工科,高职(专科),113.208066,23.200962
广东科贸职业学院,广东,广东省教育厅,财经,高职(专科),113.215193,23.216558
广州科技贸易职业学院,广东,广东省教育厅,财经,高职(专科),113.392364,23.000253
中山职业技术学院,广东,广东省教育厅,综合,高职(专科),113.431396,22.510960
广州珠江职业技术学院,广东,广东省教育厅,工科,高职(专科),113.830411,23.267629
广州松田职业学院,广东,广东省教育厅,综合,高职(专科),113.726044,23.277077
广东文理职业学院,广东,广东省教育厅,综合,高职(专科), , 
广州城建职业学院,广东,广东省教育厅,工科,高职(专科),113.610832,23.525119
东莞职业技术学院,广东,广东省教育厅,工科,高职(专科),113.857230,22.897054
广东南方职业学院,广东,广东省教育厅,艺术,高职(专科), , 
广州华商职业学院,广东,广东省教育厅,综合,高职(专科),113.783890,23.255559
广州华夏职业学院,广东,广东省教育厅,综合,高职(专科),113.516321,23.577445
广东第二师范学院,广东,广东省教育厅,师范,本科/高职(专科),113.185529,23.404974
广东环境保护工程职业学院,广东,广东省教育厅,工科,高职(专科), , 
南方科技大学,广东,广东省教育厅,综合,本科,113.987724,22.593590
广东青年职业学院,广东,广东省教育厅,综合,高职(专科),113.428382,23.368952
广州东华职业学院,广东,广东省教育厅,综合,高职(专科),113.472448,23.254405
广东创新科技职业学院,广东,广东省教育厅,工科,高职(专科), , 
广东舞蹈戏剧职业学院,广东,广东省教育厅,艺术,高职(专科),113.312264,23.143856
惠州卫生职业技术学院,广东,广东省教育厅,医药,高职(专科),114.436862,23.006059
广东信息工程职业学院,广东,广东省教育厅,工科,高职(专科), , 
广东生态工程职业学院,广东,广东省教育厅,农业,高职(专科),113.376505,23.192888
惠州城市职业学院,广东,广东省教育厅,工科,高职(专科),114.431212,23.010064
广东碧桂园职业学院,广东,广东省教育厅,综合,高职(专科), , 
广东茂名健康职业学院,广东,广东省教育厅,医药,高职(专科),111.035222,21.562833
广东酒店管理职业技术学院,广东,广东省教育厅,财经,高职(专科),113.259381,23.111249
广东茂名幼儿师范专科学校,广东,广东省教育厅,师范,高职(专科),110.917651,21.663182
广州卫生职业技术学院,广东,广东省教育厅,医药,高职(专科),113.605604,23.543878
惠州工程职业学院,广东,广东省教育厅,工科,高职(专科),114.374124,23.196228
广东江门中医药职业学院,广东,广东省教育厅,综合,高职(专科),113.058138,22.568553
广东茂名农林科技职业学院,广东,广东省教育厅,农业,高职(专科),110.925456,21.662999
深圳技术大学,广东,广东省教育厅,综合,本科,114.400057,22.702861
广东江门幼儿师范高等专科学校,广东,广东省教育厅,师范,高职(专科),113.081650,22.615051
北京师范大学-香港浸会大学联合国际学院,广东,广东省教育厅,综合,本科,116.364489,39.964655
香港中文大学(深圳),广东,广东省教育厅,综合,本科,114.209469,22.415529
深圳北理莫斯科大学,广东,广东省教育厅,综合,本科,114.205788,22.679319
